[
{"icao":"SIZN","name":"Fazenda Lagoa Nova","coords":{"degMinSec":"14°27'51''S 046°18'17''W","decimal":{"lat":-14.464166666666666,"lon":-46.30472222222222}},"type":"AD","city":"Damianópolis","uf":"GO","elev":784},
{"icao":"SJNJ","name":"MC","coords":{"degMinSec":"16°30'07''S 048°47'34''W","decimal":{"lat":-16.501944444444444,"lon":-48.79277777777778}},"type":"HP","city":"Silvânia","uf":"GO","elev":1008},
{"icao":"SWAH","name":"Eco Aviação","coords":{"degMinSec":"19°50'32''S 043°52'24''W","decimal":{"lat":-19.842222222222222,"lon":-43.873333333333335}},"type":"HP","city":"Belo Horizonte","uf":"MG","elev":698},
{"icao":"SWEV","name":"Fazenda Cambara 1","coords":{"degMinSec":"13°36'17''S 046°03'08''W","decimal":{"lat":-13.604722222222222,"lon":-46.05222222222222}},"type":"AD","city":"Correntina","uf":"BA","elev":902},
{"icao":"SDAP","name":"Hospital Paulistano","coords":{"degMinSec":"23°33'55''S 046°38'32''W","decimal":{"lat":-23.56527777777778,"lon":-46.64222222222222}},"type":"HP","city":"São Paulo","uf":"SP","elev":853},
{"icao":"SDAU","name":"Fazenda Itau","coords":{"degMinSec":"19°28'07''S 052°37'17''W","decimal":{"lat":-19.46861111111111,"lon":-52.62138888888889}},"type":"AD","city":"Água Clara","uf":"MS","elev":462},
{"icao":"SDBW","name":"Banespa República","coords":{"degMinSec":"23°32'37''S 046°38'40''W","decimal":{"lat":-23.54361111111111,"lon":-46.644444444444446}},"type":"HP","city":"São Paulo","uf":"SP","elev":816},
{"icao":"SDQB","name":"Fazenda Estrela D'Alva","coords":{"degMinSec":"13°11'21''S 052°18'25''W","decimal":{"lat":-13.189166666666667,"lon":-52.30694444444444}},"type":"AD","city":"Querência","uf":"MT","elev":381},
{"icao":"SDRA","name":"Fazenda das Represas","coords":{"degMinSec":"23°52'38''S 048°03'03''W","decimal":{"lat":-23.877222222222223,"lon":-48.05083333333333}},"type":"AD","city":"São Miguel Arcanjo","uf":"SP","elev":692},
{"icao":"SDYO","name":"Hospital Santa Marcelina","coords":{"degMinSec":"23°33'13''S 046°27'41''W","decimal":{"lat":-23.553611111111113,"lon":-46.46138888888889}},"type":"HP","city":"São Paulo","uf":"SP","elev":818},
{"icao":"SDZF","name":"Fazenda Lamarão","coords":{"degMinSec":"15°59'03''S 047°28'03''W","decimal":{"lat":-15.984166666666665,"lon":-47.4675}},"type":"AD","city":"Brasília","uf":"DF","elev":898},
{"icao":"SI9H","name":"Proeng Air","coords":{"degMinSec":"16°19'53''S 048°57'10''W","decimal":{"lat":-16.33138888888889,"lon":-48.95277777777778}},"type":"HP","city":"Anápolis","uf":"GO","elev":1041},
{"icao":"SIDJ","name":"Fazenda Arpa","coords":{"degMinSec":"08°56'53''S 050°30'47''W","decimal":{"lat":-8.948055555555555,"lon":-50.51305555555555}},"type":"AD","city":"Santa Maria das Barreiras","uf":"PA","elev":246},
{"icao":"SIFY","name":"Heliponto Conduspar","coords":{"degMinSec":"25°34'21''S 049°09'09''W","decimal":{"lat":-25.572499999999998,"lon":-49.152499999999996}},"type":"HP","city":"São José dos Pinhais","uf":"PR","elev":934},
{"icao":"SISP","name":"Reobot","coords":{"degMinSec":"23°09'28''S 046°39'45''W","decimal":{"lat":-23.157777777777778,"lon":-46.6625}},"type":"HP","city":"Jarinu","uf":"SP","elev":927},
{"icao":"SITE","name":"Torre Martiniano","coords":{"degMinSec":"23°33'59''S 046°38'33''W","decimal":{"lat":-23.56638888888889,"lon":-46.6425}},"type":"HP","city":"São Paulo","uf":"SP","elev":911},
{"icao":"SITQ","name":"Vivo S/A","coords":{"degMinSec":"23°37'13''S 046°41'57''W","decimal":{"lat":-23.62027777777778,"lon":-46.69916666666666}},"type":"HP","city":"São Paulo","uf":"SP","elev":757},
{"icao":"SJBJ","name":"Guancan","coords":{"degMinSec":"23°36'47''S 046°51'05''W","decimal":{"lat":-23.613055555555558,"lon":-46.85138888888889}},"type":"HP","city":"Cotia","uf":"SP","elev":820},
{"icao":"SJBP","name":"Atrium VI.com","coords":{"degMinSec":"23°35'44''S 046°41'15''W","decimal":{"lat":-23.595555555555553,"lon":-46.6875}},"type":"HP","city":"São Paulo","uf":"SP","elev":812},
{"icao":"SJGQ","name":"Ledware","coords":{"degMinSec":"22°34'26''S 044°58'08''W","decimal":{"lat":-22.573888888888888,"lon":-44.96888888888889}},"type":"HP","city":"Cruzeiro","uf":"SP","elev":553},
{"icao":"SJOL","name":"RS Morizono","coords":{"degMinSec":"23°30'29''S 046°50'10''W","decimal":{"lat":-23.508055555555554,"lon":-46.836111111111116}},"type":"HP","city":"Barueri","uf":"SP","elev":745},
{"icao":"SJPZ","name":"Fazenda Santo Antônio","coords":{"degMinSec":"03°06'58''S 045°00'46''W","decimal":{"lat":-3.116111111111111,"lon":-45.01277777777778}},"type":"HP","city":"Matinha","uf":"MA","elev":18},
{"icao":"SJQF","name":"Fazenda Londrina","coords":{"degMinSec":"13°21'20''S 057°45'18''W","decimal":{"lat":-13.355555555555556,"lon":-57.755}},"type":"AD","city":"Campo Novo do Parecis","uf":"MT","elev":515},
{"icao":"SJSA","name":"Fazenda Aimoré","coords":{"degMinSec":"22°47'14''S 054°35'30''W","decimal":{"lat":-22.787222222222223,"lon":-54.59166666666667}},"type":"AD","city":"Juti","uf":"MS","elev":372},
{"icao":"SNWX","name":"Fazenda Vista Alegre","coords":{"degMinSec":"20°50'53''S 054°05'36''W","decimal":{"lat":-20.848055555555554,"lon":-54.093333333333334}},"type":"AD","city":"Campo Grande","uf":"MS","elev":458},
{"icao":"SSBX","name":"Fazenda Lageado","coords":{"degMinSec":"18°26'44''S 054°47'45''W","decimal":{"lat":-18.445555555555554,"lon":-54.795833333333334}},"type":"AD","city":"Coxim","uf":"MS","elev":232},
{"icao":"SSCJ","name":"Fazenda Celeiro","coords":{"degMinSec":"21°32'30''S 054°39'42''W","decimal":{"lat":-21.541666666666668,"lon":-54.66166666666666}},"type":"AD","city":"Rio Brilhante","uf":"MS","elev":326},
{"icao":"SSYZ","name":"Fazenda Cedro","coords":{"degMinSec":"22°51'04''S 055°23'46''W","decimal":{"lat":-22.851111111111113,"lon":-55.39611111111111}},"type":"AD","city":"Aral Moreira","uf":"MS","elev":486},
{"icao":"SSZH","name":"Fazenda Corrientes","coords":{"degMinSec":"23°38'44''S 054°42'51''W","decimal":{"lat":-23.645555555555553,"lon":-54.71416666666667}},"type":"AD","city":"Tacuru","uf":"MS","elev":342},
{"icao":"SWGH","name":"Corporate Plaza Business Center","coords":{"degMinSec":"03°44'06''S 038°30'01''W","decimal":{"lat":-3.735,"lon":-38.500277777777775}},"type":"HP","city":"Fortaleza","uf":"CE","elev":117},
{"icao":"SWND","name":"Tamboré","coords":{"degMinSec":"23°30'35''S 046°49'33''W","decimal":{"lat":-23.509722222222223,"lon":-46.825833333333335}},"type":"HP","city":"Barueri","uf":"SP","elev":745},
{"icao":"SNCW","name":"Centro de Lançamento de Alcântara","coords":{"degMinSec":"02°22'18''S 044°23'27''W","decimal":{"lat":-2.3716666666666666,"lon":-44.39083333333333}},"type":"AD","city":"Alcântara","uf":"MA","elev":45},
{"icao":"SDLX","name":"Fazenda Jacareúna","coords":{"degMinSec":"11°26'31''S 052°11'58''W","decimal":{"lat":-11.441944444444445,"lon":-52.19944444444444}},"type":"AD","city":"São Félix do Araguaia","uf":"MT","elev":432},
{"icao":"SI2C","name":"Fazenda Recanto","coords":{"degMinSec":"17°29'25''S 054°09'48''W","decimal":{"lat":-17.490277777777777,"lon":-54.163333333333334}},"type":"AD","city":"Itiquira","uf":"MT","elev":690},
{"icao":"SI33","name":"Fazenda Boa Sorte","coords":{"degMinSec":"11°15'59''S 052°19'26''W","decimal":{"lat":-11.266388888888889,"lon":-52.323888888888895}},"type":"AD","city":"São Félix do Araguaia","uf":"MT","elev":353},
{"icao":"SI3Q","name":"Fazenda Cristo Rei","coords":{"degMinSec":"03°33'41''S 050°38'01''W","decimal":{"lat":-3.5613888888888887,"lon":-50.63361111111111}},"type":"AD","city":"Pacajá","uf":"PA","elev":63},
{"icao":"SI3R","name":"Fazenda Pinna","coords":{"degMinSec":"12°40'03''S 046°12'42''W","decimal":{"lat":-12.667499999999999,"lon":-46.211666666666666}},"type":"AD","city":"São Desidério","uf":"BA","elev":906},
{"icao":"SI43","name":"Fazenda Amoreira","coords":{"degMinSec":"10°50'04''S 054°46'50''W","decimal":{"lat":-10.834444444444445,"lon":-54.78055555555555}},"type":"AD","city":"Nova Santa Helena","uf":"MT","elev":349},
{"icao":"SI48","name":"Fazenda São José","coords":{"degMinSec":"10°02'37''S 053°52'07''W","decimal":{"lat":-10.043611111111112,"lon":-53.868611111111115}},"type":"AD","city":"Peixoto de Azevedo","uf":"MT","elev":348},
{"icao":"SI49","name":"WT Morumbi","coords":{"degMinSec":"23°37'25''S 046°42'07''W","decimal":{"lat":-23.62361111111111,"lon":-46.70194444444445}},"type":"HP","city":"São Paulo","uf":"SP","elev":862},
{"icao":"SI4A","name":"Asor Sul Connect","coords":{"degMinSec":"29°13'08''S 051°10'18''W","decimal":{"lat":-29.218888888888888,"lon":-51.17166666666667}},"type":"HP","city":"Caxias do Sul","uf":"RS","elev":574},
{"icao":"SICN","name":"Fazenda Vista Bonita","coords":{"degMinSec":"22°30'23''S 051°48'59''W","decimal":{"lat":-22.50638888888889,"lon":-51.81638888888889}},"type":"AD","city":"Sandovalina","uf":"SP","elev":411},
{"icao":"SIXE","name":"Aeroclube de Eldorado do Sul","coords":{"degMinSec":"30°03'01''S 051°26'37''W","decimal":{"lat":-30.05027777777778,"lon":-51.44361111111111}},"type":"AD","city":"Eldorado do Sul","uf":"RS","elev":10},
{"icao":"SJPP","name":"Aero Rural","coords":{"degMinSec":"09°55'29''S 056°00'29''W","decimal":{"lat":-9.924722222222222,"lon":-56.00805555555556}},"type":"AD","city":"Alta Floresta","uf":"MT","elev":298},
{"icao":"SNBG","name":"Baixo Guandu-Aimorés","coords":{"degMinSec":"19°29'56''S 041°02'31''W","decimal":{"lat":-19.49888888888889,"lon":-41.04194444444444}},"type":"AD","city":"Baixo Guandu","uf":"ES","elev":80},
{"icao":"SNBX","name":"Barra","coords":{"degMinSec":"11°04'52''S 043°08'51''W","decimal":{"lat":-11.081111111111111,"lon":-43.1475}},"type":"AD","city":"Barra","uf":"BA","elev":389},
{"icao":"SNFL","name":"Fly Lagos","coords":{"degMinSec":"22°43'09''S 042°03'10''W","decimal":{"lat":-22.719166666666666,"lon":-42.05277777777778}},"type":"AD","city":"Cabo Frio","uf":"RJ","elev":4},
{"icao":"SNJK","name":"JEQUIE","coords":{"degMinSec":"13°52'40''S 040°04'17''W","decimal":{"lat":-13.877777777777778,"lon":-40.07138888888889}},"type":"AD","city":"Jequié","uf":"BA","elev":197},
{"icao":"SNJM","name":"Elias Breder","coords":{"degMinSec":"20°15'35''S 042°11'02''W","decimal":{"lat":-20.259722222222223,"lon":-42.18388888888889}},"type":"AD","city":"Manhuaçu","uf":"MG","elev":829},
{"icao":"SNNO","name":"Fazenda São Domingos","coords":{"degMinSec":"14°03'32''S 059°51'03''W","decimal":{"lat":-14.05888888888889,"lon":-59.850833333333334}},"type":"AD","city":"Comodoro","uf":"MT","elev":305},
{"icao":"SNOM","name":"Fazenda Guaporeí","coords":{"degMinSec":"15°00'24''S 060°13'15''W","decimal":{"lat":-15.006666666666666,"lon":-60.22083333333334}},"type":"AD","city":"Vila Bela da Santíssima Trindade","uf":"MT","elev":313},
{"icao":"SSES","name":"Hemmer","coords":{"degMinSec":"26°53'04''S 049°08'18''W","decimal":{"lat":-26.884444444444444,"lon":-49.138333333333335}},"type":"HP","city":"Blumenau","uf":"SC","elev":50},
{"icao":"SSFF","name":"Pitangueira","coords":{"degMinSec":"27°22'34''S 049°49'50''W","decimal":{"lat":-27.37611111111111,"lon":-49.830555555555556}},"type":"HP","city":"Agrolândia","uf":"SC","elev":377},
{"icao":"SSKK","name":"Capão da Canoa","coords":{"degMinSec":"29°45'49''S 050°02'13''W","decimal":{"lat":-29.76361111111111,"lon":-50.036944444444444}},"type":"AD","city":"Capão da Canoa","uf":"RS","elev":10},
{"icao":"SSKM","name":"Campo Mourão","coords":{"degMinSec":"24°00'09''S 052°21'25''W","decimal":{"lat":-24.0025,"lon":-52.356944444444444}},"type":"AD","city":"Campo Mourão","uf":"PR","elev":574},
{"icao":"SWXC","name":"Fazenda Tropical","coords":{"degMinSec":"12°53'08''S 061°17'55''W","decimal":{"lat":-12.885555555555555,"lon":-61.29861111111111}},"type":"AD","city":"Corumbiara","uf":"RO","elev":303},
{"icao":"SWYD","name":"Spazio Faria Lima","coords":{"degMinSec":"23°35'07''S 046°40'56''W","decimal":{"lat":-23.585277777777776,"lon":-46.68222222222222}},"type":"HP","city":"São Paulo","uf":"SP","elev":835},
{"icao":"SDZR","name":"SESI-FIESP","coords":{"degMinSec":"23°33'49''S 046°39'17''W","decimal":{"lat":-23.56361111111111,"lon":-46.65472222222222}},"type":"HP","city":"São Paulo","uf":"SP","elev":910},
{"icao":"SSRN","name":"Serra do Curral","coords":{"degMinSec":"19°57'09''S 043°55'06''W","decimal":{"lat":-19.9525,"lon":-43.91833333333333}},"type":"HP","city":"Belo Horizonte","uf":"MG","elev":1111},
{"icao":"SDQ3","name":"Aldeia Matawaré","coords":{"degMinSec":"01°57'04''N 055°07'21''W","decimal":{"lat":1.951111111111111,"lon":-55.1225}},"type":"AD","city":"Almeirim","uf":"PA","elev":330},
{"icao":"SDT2","name":"Fazenda São Geraldo II","coords":{"degMinSec":"04°02'13''S 049°11'01''W","decimal":{"lat":-4.036944444444444,"lon":-49.183611111111105}},"type":"AD","city":"Goianésia do Pará","uf":"PA","elev":71},
{"icao":"SDT4","name":"Fazenda Jucarama","coords":{"degMinSec":"14°05'49''S 052°41'30''W","decimal":{"lat":-14.096944444444444,"lon":-52.69166666666666}},"type":"AD","city":"Água Boa","uf":"MT","elev":430},
{"icao":"SDT6","name":"Fazenda Reunidas Espigão do Oeste","coords":{"degMinSec":"11°32'44''S 052°08'22''W","decimal":{"lat":-11.545555555555556,"lon":-52.13944444444444}},"type":"AD","city":"São Félix do Araguaia","uf":"MT","elev":358},
{"icao":"SDT7","name":"Master Bela Vista","coords":{"degMinSec":"28°10'27''S 052°36'01''W","decimal":{"lat":-28.174166666666668,"lon":-52.60027777777778}},"type":"AD","city":"Passo Fundo","uf":"RS","elev":618},
{"icao":"SJ4N","name":"Aldeia Ananapiare","coords":{"degMinSec":"00°37'12''N 054°25'38''W","decimal":{"lat":0.62,"lon":-54.42722222222222}},"type":"AD","city":"Almeirim","uf":"PA","elev":298},
{"icao":"SJTF","name":"Fazenda Mequens","coords":{"degMinSec":"13°03'45''S 062°15'36''W","decimal":{"lat":-13.0625,"lon":-62.26}},"type":"AD","city":"Alta Floresta D'Oeste","uf":"RO","elev":170},
{"icao":"SDCZ","name":"Fazenda Bom Jardim","coords":{"degMinSec":"22°56'05''S 044°05'30''W","decimal":{"lat":-22.934722222222224,"lon":-44.09166666666667}},"type":"AD","city":"Mangaratiba","uf":"RJ","elev":4},
{"icao":"SDI3","name":"Fazenda Califórnia","coords":{"degMinSec":"00°20'19''N 053°49'05''W","decimal":{"lat":0.3386111111111111,"lon":-53.81805555555556}},"type":"AD","city":"Almeirim","uf":"PA","elev":534},
{"icao":"SDI4","name":"Fazenda Amadeus Andrade","coords":{"degMinSec":"11°08'48''S 062°49'44''W","decimal":{"lat":-11.146666666666667,"lon":-62.82888888888889}},"type":"AD","city":"Mirante da Serra","uf":"RO","elev":267},
{"icao":"SDI6","name":"Ilha Paraíso","coords":{"degMinSec":"16°15'34''S 039°01'00''W","decimal":{"lat":-16.259444444444444,"lon":-39.016666666666666}},"type":"HP","city":"Santa Cruz Cabrália","uf":"BA","elev":2},
{"icao":"SDI7","name":"Fazenda Veneza","coords":{"degMinSec":"19°35'09''S 055°41'49''W","decimal":{"lat":-19.585833333333333,"lon":-55.69694444444444}},"type":"AD","city":"Aquidauana","uf":"MS","elev":120},
{"icao":"SDI8","name":"Fazenda Cristo Rei","coords":{"degMinSec":"09°25'49''S 050°18'27''W","decimal":{"lat":-9.430277777777777,"lon":-50.3075}},"type":"AD","city":"Santana do Araguaia","uf":"PA","elev":207},
{"icao":"SDI9","name":"Fazenda Filipina","coords":{"degMinSec":"10°14'14''S 052°25'43''W","decimal":{"lat":-10.237222222222222,"lon":-52.42861111111111}},"type":"AD","city":"Santa Cruz do Xingu","uf":"MT","elev":341},
{"icao":"SDJ3","name":"Fazenda Santa Rita","coords":{"degMinSec":"07°14'43''S 049°26'11''W","decimal":{"lat":-7.245277777777778,"lon":-49.436388888888885}},"type":"AD","city":"Rio Maria","uf":"PA","elev":153},
{"icao":"SDJ4","name":"Fazenda Xerez","coords":{"degMinSec":"21°55'24''S 056°42'25''W","decimal":{"lat":-21.923333333333336,"lon":-56.706944444444446}},"type":"AD","city":"Bela Vista","uf":"MS","elev":292},
{"icao":"SDJG","name":"Fazenda São João do Pirajá","coords":{"degMinSec":"09°01'07''S 044°35'16''W","decimal":{"lat":-9.018611111111111,"lon":-44.58777777777778}},"type":"AD","city":"Currais","uf":"PI","elev":565},
{"icao":"SDK8","name":"Fazenda Baú","coords":{"degMinSec":"16°30'20''S 057°35'59''W","decimal":{"lat":-16.505555555555556,"lon":-57.599722222222226}},"type":"AD","city":"Cáceres","uf":"MT","elev":170},
{"icao":"SDL2","name":"Fazenda São José","coords":{"degMinSec":"12°05'24''S 054°56'25''W","decimal":{"lat":-12.09,"lon":-54.94027777777777}},"type":"AD","city":"Santa Carmem","uf":"MT","elev":370},
{"icao":"SDMV","name":"Fazenda Morro Vermelho","coords":{"degMinSec":"22°16'28''S 048°36'15''W","decimal":{"lat":-22.274444444444445,"lon":-48.60416666666667}},"type":"AD","city":"Jaú","uf":"SP","elev":529},
{"icao":"SIVF","name":"Fazenda Santa Cruz","coords":{"degMinSec":"11°39'02''S 052°44'12''W","decimal":{"lat":-11.650555555555556,"lon":-52.736666666666665}},"type":"AD","city":"Querência","uf":"MT","elev":290},
{"icao":"SJAH","name":"Fazenda Gesso Integral","coords":{"degMinSec":"05°46'26''S 046°09'53''W","decimal":{"lat":-5.773888888888889,"lon":-46.164722222222224}},"type":"AD","city":"Grajaú","uf":"MA","elev":230},
{"icao":"SJRE","name":"Vila Adail","coords":{"degMinSec":"23°03'01''S 047°23'25''W","decimal":{"lat":-23.05027777777778,"lon":-47.390277777777776}},"type":"HP","city":"Elias Fausto","uf":"SP","elev":601},
{"icao":"SJUY","name":"Sinal Empreendimentos","coords":{"degMinSec":"22°29'19''S 041°56'07''W","decimal":{"lat":-22.488611111111112,"lon":-41.93527777777778}},"type":"HP","city":"Rio das Ostras","uf":"RJ","elev":10},
{"icao":"SSSK","name":"FC","coords":{"degMinSec":"04°30'21''S 043°55'25''W","decimal":{"lat":-4.505833333333333,"lon":-43.92361111111111}},"type":"AD","city":"Codó","uf":"MA","elev":72},
{"icao":"SWLI","name":"Fazenda Santa Maria da Nhecolândia","coords":{"degMinSec":"18°49'00''S 056°34'46''W","decimal":{"lat":-18.816666666666666,"lon":-56.57944444444445}},"type":"AD","city":"Corumbá","uf":"MS","elev":106},
{"icao":"SDCF","name":"Fazenda Porto Ciriaco","coords":{"degMinSec":"19°41'48''S 056°17'02''W","decimal":{"lat":-19.696666666666665,"lon":-56.28388888888889}},"type":"AD","city":"Aquidauana","uf":"MS","elev":111},
{"icao":"SDDA","name":"Fazenda Santa Alaydes","coords":{"degMinSec":"18°27'35''S 055°32'00''W","decimal":{"lat":-18.459722222222222,"lon":-55.53333333333333}},"type":"AD","city":"Corumbá","uf":"MS","elev":162},
{"icao":"SDOO","name":"Órion","coords":{"degMinSec":"16°41'49''S 049°16'11''W","decimal":{"lat":-16.696944444444444,"lon":-49.26972222222222}},"type":"HP","city":"Goiânia","uf":"GO","elev":941.82},
{"icao":"SIHA","name":"Agropecuária São Bernardo","coords":{"degMinSec":"28°49'06''S 054°22'57''W","decimal":{"lat":-28.81833333333333,"lon":-54.3825}},"type":"AD","city":"São Miguel das Missões","uf":"RS","elev":326},
{"icao":"SIXP","name":"Pretel 88","coords":{"degMinSec":"23°41'26''S 049°06'12''W","decimal":{"lat":-23.690555555555555,"lon":-49.10333333333333}},"type":"HP","city":"Itaí","uf":"SP","elev":716},
{"icao":"SJDM","name":"Fazenda Jarinã","coords":{"degMinSec":"10°19'31''S 053°35'09''W","decimal":{"lat":-10.325277777777778,"lon":-53.58583333333333}},"type":"AD","city":"Peixoto de Azevedo","uf":"MT","elev":339},
{"icao":"SJFX","name":"Fazenda Cypi","coords":{"degMinSec":"19°20'06''S 056°54'15''W","decimal":{"lat":-19.334999999999997,"lon":-56.90416666666667}},"type":"AD","city":"Corumbá","uf":"MS","elev":93},
{"icao":"SJJH","name":"Fazenda Juína","coords":{"degMinSec":"13°26'23''S 059°15'25''W","decimal":{"lat":-13.439722222222223,"lon":-59.25694444444444}},"type":"AD","city":"Campos de Júlio","uf":"MT","elev":579},
{"icao":"SJTE","name":"Tênis Camp","coords":{"degMinSec":"22°33'57''S 047°04'26''W","decimal":{"lat":-22.565833333333334,"lon":-47.073888888888895}},"type":"HP","city":"Artur Nogueira","uf":"SP","elev":617},
{"icao":"SWGF","name":"Fazenda Fortaleza","coords":{"degMinSec":"07°54'28''S 061°15'00''W","decimal":{"lat":-7.9077777777777785,"lon":-61.25}},"type":"AD","city":"Novo Aripuanã","uf":"AM","elev":86},
{"icao":"SDBY","name":"Bariri","coords":{"degMinSec":"22°04'09''S 048°42'23''W","decimal":{"lat":-22.069166666666668,"lon":-48.70638888888889}},"type":"AD","city":"Bariri","uf":"SP","elev":493},
{"icao":"SSSD","name":"Soledade","coords":{"degMinSec":"28°51'48''S 052°32'26''W","decimal":{"lat":-28.863333333333333,"lon":-52.54055555555556}},"type":"AD","city":"Soledade","uf":"RS","elev":673},
{"icao":"SSWK","name":"Fazenda Cuelhambi","coords":{"degMinSec":"21°59'53''S 054°04'08''W","decimal":{"lat":-21.998055555555556,"lon":-54.06888888888889}},"type":"AD","city":"Angélica","uf":"MS","elev":350},
{"icao":"SSYC","name":"Santa Gertrudes","coords":{"degMinSec":"23°39'15''S 048°09'49''W","decimal":{"lat":-23.654166666666665,"lon":-48.16361111111111}},"type":"HP","city":"Itapetininga","uf":"SP","elev":695},
{"icao":"SWGA","name":"Represa Avaré","coords":{"degMinSec":"23°12'07''S 048°59'05''W","decimal":{"lat":-23.201944444444443,"lon":-48.984722222222224}},"type":"HP","city":"Avaré","uf":"SP","elev":572},
{"icao":"SWJS","name":"Santa Rosa Pantanal Hotel","coords":{"degMinSec":"17°21'59''S 056°47'30''W","decimal":{"lat":-17.366388888888892,"lon":-56.791666666666664}},"type":"AD","city":"Poconé","uf":"MT","elev":111},
{"icao":"SI3F","name":"Fazenda Eldorado","coords":{"degMinSec":"21°17'44''S 056°17'07''W","decimal":{"lat":-21.295555555555556,"lon":-56.28527777777778}},"type":"AD","city":"Bonito","uf":"MS","elev":248},
{"icao":"SI6C","name":"Arvoredo","coords":{"degMinSec":"19°52'54''S 044°01'48''W","decimal":{"lat":-19.881666666666668,"lon":-44.03}},"type":"HP","city":"Contagem","uf":"MG","elev":877},
{"icao":"SI6L","name":"Fazenda Gauba","coords":{"degMinSec":"11°38'26''S 061°04'54''W","decimal":{"lat":-11.640555555555554,"lon":-61.08166666666667}},"type":"AD","city":"Pimenta Bueno","uf":"RO","elev":206},
{"icao":"SI6N","name":"Fazenda Borchardt","coords":{"degMinSec":"11°09'48''S 056°54'46''W","decimal":{"lat":-11.163333333333334,"lon":-56.91277777777778}},"type":"AD","city":"Tabaporã","uf":"MT","elev":346},
{"icao":"SI6R","name":"Fazenda Tolimã","coords":{"degMinSec":"11°02'04''S 056°37'25''W","decimal":{"lat":-11.034444444444444,"lon":-56.62361111111111}},"type":"AD","city":"Tabaporã","uf":"MT","elev":448},
{"icao":"SIJT","name":"Mima 3","coords":{"degMinSec":"21°44'59''S 041°18'10''W","decimal":{"lat":-21.749722222222225,"lon":-41.30277777777778}},"type":"HP","city":"Campos dos Goytacazes","uf":"RJ","elev":20},
{"icao":"SION","name":"Tibagi","coords":{"degMinSec":"04°15'05''S 038°57'06''W","decimal":{"lat":-4.251388888888889,"lon":-38.95166666666667}},"type":"HP","city":"Guaramiranga","uf":"CE","elev":856},
{"icao":"SJ2P","name":"Merlin Agro","coords":{"degMinSec":"10°13'27''S 046°06'43''W","decimal":{"lat":-10.224166666666667,"lon":-46.11194444444445}},"type":"AD","city":"Mateiros","uf":"TO","elev":798},
{"icao":"SJ3K","name":"Fazenda Pansera","coords":{"degMinSec":"08°00'59''S 046°38'14''W","decimal":{"lat":-8.016388888888889,"lon":-46.63722222222222}},"type":"AD","city":"Campos Lindos","uf":"TO","elev":357},
{"icao":"SJ3W","name":"Distrito Itaqui","coords":{"degMinSec":"23°30'02''S 046°57'58''W","decimal":{"lat":-23.500555555555554,"lon":-46.96611111111111}},"type":"HP","city":"Itapevi","uf":"SP","elev":1003},
{"icao":"SJ4D","name":"Fazenda Tiúba","coords":{"degMinSec":"05°50'59''S 043°31'14''W","decimal":{"lat":-5.849722222222222,"lon":-43.52055555555555}},"type":"AD","city":"Parnarama","uf":"MA","elev":190},
{"icao":"SJBM","name":"Quinta São José","coords":{"degMinSec":"23°21'41''S 047°34'07''W","decimal":{"lat":-23.36138888888889,"lon":-47.56861111111112}},"type":"HP","city":"Porto Feliz","uf":"SP","elev":572},
{"icao":"SJCX","name":"Fazenda Visual","coords":{"degMinSec":"19°38'32''S 044°21'50''W","decimal":{"lat":-19.642222222222223,"lon":-44.36388888888889}},"type":"HP","city":"Esmeraldas","uf":"MG","elev":767},
{"icao":"SJDF","name":"Fazenda Futura","coords":{"degMinSec":"16°56'49''S 046°11'39''W","decimal":{"lat":-16.946944444444444,"lon":-46.19416666666666}},"type":"AD","city":"Brasilândia de Minas","uf":"MG","elev":501},
{"icao":"SJEJ","name":"Fazenda Estrela","coords":{"degMinSec":"03°22'06''N 061°13'11''W","decimal":{"lat":3.368333333333333,"lon":-61.219722222222224}},"type":"AD","city":"Alto Alegre","uf":"RR","elev":113},
{"icao":"SJQL","name":"Águas Claras Aviação Agrícola","coords":{"degMinSec":"19°19'20''S 047°33'18''W","decimal":{"lat":-19.322222222222223,"lon":-47.555}},"type":"AD","city":"Santa Juliana","uf":"MG","elev":1020},
{"icao":"SNEG","name":"Fazenda Netolândia","coords":{"degMinSec":"14°39'04''S 057°53'17''W","decimal":{"lat":-14.651111111111112,"lon":-57.88805555555555}},"type":"AD","city":"Tangará da Serra","uf":"MT","elev":312},
{"icao":"SNSE","name":"Sento Sé","coords":{"degMinSec":"09°45'27''S 041°51'18''W","decimal":{"lat":-9.7575,"lon":-41.855000000000004}},"type":"AD","city":"Sento Sé","uf":"BA","elev":398},
{"icao":"SSFI","name":"Fazenda Eldorado da Formosa","coords":{"degMinSec":"17°54'26''S 056°33'48''W","decimal":{"lat":-17.90722222222222,"lon":-56.56333333333333}},"type":"AD","city":"Corumbá","uf":"MS","elev":121},
{"icao":"SSNJ","name":"Fazenda Primavera","coords":{"degMinSec":"19°30'31''S 055°54'20''W","decimal":{"lat":-19.50861111111111,"lon":-55.90555555555555}},"type":"AD","city":"Aquidauana","uf":"MS","elev":117},
{"icao":"SWBV","name":"Auaris","coords":{"degMinSec":"04°00'10''N 064°29'44''W","decimal":{"lat":4.002777777777778,"lon":-64.49555555555555}},"type":"AD","city":"Amajari","uf":"RR","elev":759.6},
{"icao":"SBBH","name":"Pampulha - Carlos Drummond de Andrade","coords":{"degMinSec":"19°51'07''S 043°57'02''W","decimal":{"lat":-19.851944444444445,"lon":-43.95055555555556}},"type":"AD","city":"Belo Horizonte","uf":"MG","elev":789},
{"icao":"SJCU","name":"SJ Agropecuária","coords":{"degMinSec":"13°41'40''S 045°53'20''W","decimal":{"lat":-13.694444444444445,"lon":-45.888888888888886}},"type":"AD","city":"Correntina","uf":"BA","elev":868},
{"icao":"SWLL","name":"Fazenda Liberdade","coords":{"degMinSec":"13°37'36''S 045°24'54''W","decimal":{"lat":-13.626666666666667,"lon":-45.415}},"type":"AD","city":"Correntina","uf":"BA","elev":784},
{"icao":"SJVX","name":"Pagrisa","coords":{"degMinSec":"03°42'10''S 047°45'40''W","decimal":{"lat":-3.702777777777778,"lon":-47.76111111111111}},"type":"AD","city":"Ulianópolis","uf":"PA","elev":134},
{"icao":"SSHG","name":"Fazenda Santa Helena","coords":{"degMinSec":"30°08'09''S 052°37'44''W","decimal":{"lat":-30.135833333333334,"lon":-52.62888888888889}},"type":"AD","city":"Rio Pardo","uf":"RS","elev":82},
{"icao":"SWAO","name":"Anamoim","coords":{"degMinSec":"01°47'59''N 067°23'02''W","decimal":{"lat":1.799722222222222,"lon":-67.38388888888889}},"type":"AD","city":"São Gabriel da Cachoeira","uf":"AM","elev":102},
{"icao":"SWAZ","name":"Santo Atanázio","coords":{"degMinSec":"00°23'59''N 069°18'02''W","decimal":{"lat":0.39972222222222226,"lon":-69.30055555555555}},"type":"AD","city":"São Gabriel da Cachoeira","uf":"AM","elev":120},
{"icao":"SWOL","name":"Fazenda Roncador","coords":{"degMinSec":"15°05'46''S 052°24'00''W","decimal":{"lat":-15.096111111111112,"lon":-52.4}},"type":"AD","city":"Barra do Garças","uf":"MT","elev":412},
{"icao":"SNQR","name":"Fazenda Bahia - Don Bosco","coords":{"degMinSec":"16°43'16''S 057°13'56''W","decimal":{"lat":-16.72111111111111,"lon":-57.23222222222223}},"type":"AD","city":"Poconé","uf":"MT","elev":118},
{"icao":"SNRX","name":"Riachão","coords":{"degMinSec":"07°20'47''S 046°37'39''W","decimal":{"lat":-7.346388888888889,"lon":-46.6275}},"type":"AD","city":"Riachão","uf":"MA","elev":400},
{"icao":"SWEA","name":"Fazenda Santiago de Compostela","coords":{"degMinSec":"13°27'04''S 060°16'13''W","decimal":{"lat":-13.45111111111111,"lon":-60.27027777777778}},"type":"AD","city":"Comodoro","uf":"MT","elev":267},
{"icao":"SBIC","name":"Itacoatiara","coords":{"degMinSec":"03°07'35''S 058°28'54''W","decimal":{"lat":-3.126388888888889,"lon":-58.48166666666667}},"type":"AD","city":"Itacoatiara","uf":"AM","elev":43},
{"icao":"SBMO","name":"Zumbi dos Palmares","coords":{"degMinSec":"09°30'39''S 035°47'30''W","decimal":{"lat":-9.510833333333334,"lon":-35.791666666666664}},"type":"AD","city":"Maceió","uf":"AL","elev":118.32},
{"icao":"SBPK","name":"João Simões Lopes Neto","coords":{"degMinSec":"31°42'58''S 052°19'52''W","decimal":{"lat":-31.71611111111111,"lon":-52.33111111111111}},"type":"AD","city":"Pelotas","uf":"RS","elev":18},
{"icao":"SDOV","name":"Mozarlândia","coords":{"degMinSec":"14°46'08''S 050°33'54''W","decimal":{"lat":-14.76888888888889,"lon":-50.565}},"type":"AD","city":"Mozarlândia","uf":"GO","elev":328},
{"icao":"SJ98","name":"Pedro Zanetti","coords":{"degMinSec":"32°00'38''S 052°36'01''W","decimal":{"lat":-32.010555555555555,"lon":-52.60027777777778}},"type":"AD","city":"Arroio Grande","uf":"RS","elev":17},
{"icao":"SJ9A","name":"Barreirinha","coords":{"degMinSec":"02°47'31''S 057°03'29''W","decimal":{"lat":-2.7919444444444443,"lon":-57.058055555555555}},"type":"AD","city":"Barreirinha","uf":"AM","elev":14},
{"icao":"SN4M","name":"Fazenda Bela Vista - Vontobel Agrícola","coords":{"degMinSec":"04°12'21''S 043°17'56''W","decimal":{"lat":-4.2058333333333335,"lon":-43.29888888888889}},"type":"AD","city":"Afonso Cunha","uf":"MA","elev":128},
{"icao":"SN4N","name":"Hospital Mater Dei Salvador","coords":{"degMinSec":"13°00'26''S 038°29'36''W","decimal":{"lat":-13.007222222222222,"lon":-38.49333333333333}},"type":"HP","city":"Salvador","uf":"BA","elev":94},
{"icao":"SN4P","name":"Fazenda Leonel Bedin","coords":{"degMinSec":"11°55'12''S 056°04'25''W","decimal":{"lat":-11.92,"lon":-56.07361111111111}},"type":"AD","city":"Ipiranga do Norte","uf":"MT","elev":394},
{"icao":"SN4Q","name":"SJ Borboletas","coords":{"degMinSec":"21°09'12''S 049°01'53''W","decimal":{"lat":-21.153333333333332,"lon":-49.03138888888889}},"type":"AD","city":"Catanduva","uf":"SP","elev":574},
{"icao":"SNOS","name":"Municipal José Figueiredo","coords":{"degMinSec":"20°43'55''S 046°39'43''W","decimal":{"lat":-20.731944444444444,"lon":-46.661944444444444}},"type":"AD","city":"Passos","uf":"MG","elev":822},
{"icao":"SSVI","name":"Ângelo Ponzoni","coords":{"degMinSec":"26°59'59''S 051°08'29''W","decimal":{"lat":-26.999722222222225,"lon":-51.14138888888889}},"type":"AD","city":"Videira","uf":"SC","elev":843},
{"icao":"SWKC","name":"Cáceres","coords":{"degMinSec":"16°02'33''S 057°37'48''W","decimal":{"lat":-16.0425,"lon":-57.63}},"type":"AD","city":"Cáceres","uf":"MT","elev":151},
{"icao":"SWUZ","name":"BRIGADEIRO ARARIPE MACEDO","coords":{"degMinSec":"16°15'42''S 047°58'07''W","decimal":{"lat":-16.261666666666667,"lon":-47.968611111111116}},"type":"AD","city":"Luziânia","uf":"GO","elev":996},
{"icao":"SJ3F","name":"Aldeia Kumenê","coords":{"degMinSec":"03°29'22''N 051°29'05''W","decimal":{"lat":3.4894444444444446,"lon":-51.484722222222224}},"type":"AD","city":"Oiapoque","uf":"AP","elev":21},
{"icao":"SDOX","name":"Fazenda Água Fria","coords":{"degMinSec":"07°00'55''S 049°21'58''W","decimal":{"lat":-7.0152777777777775,"lon":-49.36611111111111}},"type":"AD","city":"Xinguara","uf":"PA","elev":176},
{"icao":"SIEZ","name":"Asa Branca","coords":{"degMinSec":"28°31'41''S 048°56'57''W","decimal":{"lat":-28.528055555555554,"lon":-48.94916666666666}},"type":"AD","city":"Tubarão","uf":"SC","elev":8},
{"icao":"SIKU","name":"Fazenda Gaúcha do Norte","coords":{"degMinSec":"13°01'53''S 052°58'51''W","decimal":{"lat":-13.03138888888889,"lon":-52.98083333333334}},"type":"AD","city":"Gaúcha do Norte","uf":"MT","elev":355},
{"icao":"SJGD","name":"Fazenda Rio Brilhante","coords":{"degMinSec":"12°48'12''S 045°43'25''W","decimal":{"lat":-12.803333333333335,"lon":-45.72361111111111}},"type":"AD","city":"São Desidério","uf":"BA","elev":853},
{"icao":"SJOU","name":"Minerva Paranatinga","coords":{"degMinSec":"14°27'43''S 054°02'05''W","decimal":{"lat":-14.461944444444443,"lon":-54.03472222222222}},"type":"AD","city":"Paranatinga","uf":"MT","elev":496},
{"icao":"SJYZ","name":"Fazenda Gaúcha","coords":{"degMinSec":"13°43'23''S 057°37'14''W","decimal":{"lat":-13.723055555555556,"lon":-57.620555555555555}},"type":"AD","city":"Campo Novo do Parecis","uf":"MT","elev":559},
{"icao":"SNMW","name":"Fazenda Parceiro","coords":{"degMinSec":"10°33'29''S 045°26'48''W","decimal":{"lat":-10.558055555555557,"lon":-45.446666666666665}},"type":"AD","city":"Corrente","uf":"PI","elev":787},
{"icao":"SNVD","name":"Santa Maria da Vitória","coords":{"degMinSec":"13°24'17''S 044°13'23''W","decimal":{"lat":-13.404722222222222,"lon":-44.223055555555554}},"type":"AD","city":"Santa Maria da Vitória","uf":"BA","elev":465},
{"icao":"SNXR","name":"Fazenda Conforto","coords":{"degMinSec":"07°23'23''S 056°31'13''W","decimal":{"lat":-7.389722222222223,"lon":-56.52027777777778}},"type":"AD","city":"Itaituba","uf":"PA","elev":235},
{"icao":"SSZX","name":"Fazenda Ranchinho do Guaporé","coords":{"degMinSec":"15°41'52''S 059°55'33''W","decimal":{"lat":-15.697777777777778,"lon":-59.92583333333333}},"type":"AD","city":"Pontes e Lacerda","uf":"MT","elev":210},
{"icao":"SWKJ","name":"Parklog","coords":{"degMinSec":"22°32'35''S 046°59'55''W","decimal":{"lat":-22.543055555555558,"lon":-46.99861111111111}},"type":"HP","city":"Mogi Mirim","uf":"SP","elev":619},
{"icao":"SWLQ","name":"Fazenda Mata Velha","coords":{"degMinSec":"07°54'29''S 061°33'48''W","decimal":{"lat":-7.908055555555556,"lon":-61.56333333333333}},"type":"AD","city":"Manicoré","uf":"AM","elev":117},
{"icao":"SWON","name":"Clube de Aviação Céu Azul","coords":{"degMinSec":"26°33'41''S 048°41'46''W","decimal":{"lat":-26.56138888888889,"lon":-48.69611111111111}},"type":"AD","city":"Araquari","uf":"SC","elev":5},
{"icao":"SBMQ","name":"Alberto Alcolumbre","coords":{"degMinSec":"00°03'02''N 051°04'20''W","decimal":{"lat":0.050555555555555555,"lon":-51.07222222222222}},"type":"AD","city":"Macapá","uf":"AP","elev":17},
{"icao":"SBNV","name":"AERÓDROMO NACIONAL DE AVIAÇÃO","coords":{"degMinSec":"16°37'32''S 049°20'58''W","decimal":{"lat":-16.625555555555557,"lon":-49.349444444444444}},"type":"AD","city":"Goiânia","uf":"GO","elev":833},
{"icao":"SBPG","name":"Comandante Antônio Amilton Beraldo","coords":{"degMinSec":"25°11'04''S 050°08'38''W","decimal":{"lat":-25.184444444444445,"lon":-50.14388888888889}},"type":"AD","city":"Ponta Grossa","uf":"PR","elev":789},
{"icao":"SBPO","name":"Aeroporto Regional de Pato Branco","coords":{"degMinSec":"26°13'02''S 052°41'40''W","decimal":{"lat":-26.21722222222222,"lon":-52.69444444444444}},"type":"AD","city":"Pato Branco","uf":"PR","elev":823},
{"icao":"SBPW","name":"Porto do Açu","coords":{"degMinSec":"21°48'17''S 041°06'35''W","decimal":{"lat":-21.804722222222225,"lon":-41.109722222222224}},"type":"HP","city":"São João da Barra","uf":"RJ","elev":5.4},
{"icao":"SBSN","name":"Maestro Wilson Fonseca","coords":{"degMinSec":"02°25'29''S 054°47'09''W","decimal":{"lat":-2.424722222222222,"lon":-54.78583333333333}},"type":"AD","city":"Santarém","uf":"PA","elev":60},
{"icao":"SBUR","name":"MARIO DE ALMEIDA FRANCO","coords":{"degMinSec":"19°45'53''S 047°57'58''W","decimal":{"lat":-19.764722222222222,"lon":-47.96611111111111}},"type":"AD","city":"Uberaba","uf":"MG","elev":809},
{"icao":"SIOA","name":"Fazenda Primavera","coords":{"degMinSec":"15°34'03''S 039°09'10''W","decimal":{"lat":-15.567499999999999,"lon":-39.15277777777778}},"type":"AD","city":"Canavieiras","uf":"BA","elev":36},
{"icao":"SJ7W","name":"Valente","coords":{"degMinSec":"11°24'41''S 039°26'31''W","decimal":{"lat":-11.411388888888888,"lon":-39.44194444444444}},"type":"AD","city":"Valente","uf":"BA","elev":334},
{"icao":"SJ88","name":"Fazenda Bom Pastor","coords":{"degMinSec":"20°36'57''S 055°38'26''W","decimal":{"lat":-20.615833333333335,"lon":-55.64055555555556}},"type":"AD","city":"Anastácio","uf":"MS","elev":262},
{"icao":"SJ89","name":"Fazenda Baliza","coords":{"degMinSec":"14°34'03''S 053°55'56''W","decimal":{"lat":-14.567499999999999,"lon":-53.93222222222222}},"type":"AD","city":"Paranatinga","uf":"MT","elev":645},
{"icao":"SJ8A","name":"Grato Agropecuária - Fazenda Ipanema","coords":{"degMinSec":"13°16'34''S 045°56'43''W","decimal":{"lat":-13.276111111111112,"lon":-45.945277777777775}},"type":"AD","city":"São Desidério","uf":"BA","elev":870},
{"icao":"SJ8C","name":"Zimba Castelo Branco","coords":{"degMinSec":"23°28'24''S 047°01'23''W","decimal":{"lat":-23.473333333333333,"lon":-47.02305555555555}},"type":"HP","city":"Araçariguama","uf":"SP","elev":813},
{"icao":"SJ8E","name":"Fazenda Casa Branca","coords":{"degMinSec":"18°29'57''S 041°52'08''W","decimal":{"lat":-18.499166666666667,"lon":-41.86888888888889}},"type":"AD","city":"Frei Inocêncio","uf":"MG","elev":222},
{"icao":"SJ8F","name":"Agropecuária Campo Novo","coords":{"degMinSec":"04°27'57''S 044°10'24''W","decimal":{"lat":-4.465833333333333,"lon":-44.17333333333333}},"type":"AD","city":"Peritoró","uf":"MA","elev":143},
{"icao":"SNMR","name":"Maraú","coords":{"degMinSec":"14°08'36''S 039°00'24''W","decimal":{"lat":-14.143333333333333,"lon":-39.00666666666667}},"type":"AD","city":"Maraú","uf":"BA","elev":9},
{"icao":"SWXN","name":"Fazenda Bom Jardim","coords":{"degMinSec":"17°14'50''S 051°16'14''W","decimal":{"lat":-17.247222222222224,"lon":-51.27055555555555}},"type":"AD","city":"Montividiu","uf":"GO","elev":894},
{"icao":"SJXA","name":"Clube de Aviação de Itaúna","coords":{"degMinSec":"20°04'28''S 044°39'15''W","decimal":{"lat":-20.074444444444445,"lon":-44.65416666666667}},"type":"AD","city":"Itaúna","uf":"MG","elev":805},
{"icao":"SBOP","name":"Arena Corinthians","coords":{"degMinSec":"23°32'39''S 046°28'40''W","decimal":{"lat":-23.54416666666667,"lon":-46.47777777777778}},"type":"HP","city":"São Paulo","uf":"SP","elev":806},
{"icao":"SBSG","name":"São Gonçalo do Amarante - Governador Aluizio Alves","coords":{"degMinSec":"05°46'08''S 035°21'59''W","decimal":{"lat":-5.768888888888889,"lon":-35.36638888888889}},"type":"AD","city":"Natal","uf":"RN","elev":83},
{"icao":"SBZM","name":"Presidente Itamar Franco","coords":{"degMinSec":"21°30'47''S 043°10'23''W","decimal":{"lat":-21.513055555555557,"lon":-43.17305555555555}},"type":"AD","city":"Goianá","uf":"MG","elev":412},
{"icao":"SJJB","name":"Fazenda Barra Mansa","coords":{"degMinSec":"20°46'07''S 052°46'43''W","decimal":{"lat":-20.76861111111111,"lon":-52.77861111111111}},"type":"AD","city":"Brasilândia","uf":"MS","elev":433},
{"icao":"SNDR","name":"Domingos Rego","coords":{"degMinSec":"05°04'51''S 042°52'25''W","decimal":{"lat":-5.0808333333333335,"lon":-42.87361111111111}},"type":"AD","city":"Timon","uf":"MA","elev":92},
{"icao":"SNFH","name":"Usina César Filho","coords":{"degMinSec":"12°15'44''S 061°10'37''W","decimal":{"lat":-12.262222222222222,"lon":-61.176944444444445}},"type":"AD","city":"Chupinguaia","uf":"RO","elev":300},
{"icao":"SNMX","name":"São Mateus","coords":{"degMinSec":"18°43'17''S 039°50'01''W","decimal":{"lat":-18.72138888888889,"lon":-39.83361111111111}},"type":"AD","city":"São Mateus","uf":"ES","elev":30},
{"icao":"SNZG","name":"Fazenda São Benedito","coords":{"degMinSec":"23°51'40''S 048°14'12''W","decimal":{"lat":-23.861111111111114,"lon":-48.236666666666665}},"type":"AD","city":"Capão Bonito","uf":"SP","elev":620},
{"icao":"SDFK","name":"Fazenda Figueira","coords":{"degMinSec":"22°04'04''S 052°09'01''W","decimal":{"lat":-22.067777777777778,"lon":-52.150277777777774}},"type":"AD","city":"Marabá Paulista","uf":"SP","elev":376},
{"icao":"SITH","name":"Fazenda Vitória","coords":{"degMinSec":"12°09'04''S 045°52'16''W","decimal":{"lat":-12.151111111111112,"lon":-45.87111111111111}},"type":"AD","city":"Luís Eduardo Magalhães","uf":"BA","elev":737},
{"icao":"SJ2L","name":"Santuário Santa Rita de Cássia","coords":{"degMinSec":"20°34'29''S 046°54'41''W","decimal":{"lat":-20.57472222222222,"lon":-46.91138888888889}},"type":"HP","city":"Cássia","uf":"MG","elev":795},
{"icao":"SJ2M","name":"Fazenda Quatro Irmãos","coords":{"degMinSec":"07°35'28''S 055°41'41''W","decimal":{"lat":-7.591111111111111,"lon":-55.69472222222222}},"type":"AD","city":"Novo Progresso","uf":"PA","elev":281},
{"icao":"SJ2N","name":"Condomínio Aeronáutico JW","coords":{"degMinSec":"07°14'12''S 034°58'07''W","decimal":{"lat":-7.236666666666666,"lon":-34.968611111111116}},"type":"AD","city":"Santa Rita","uf":"PB","elev":79},
{"icao":"SJ2Q","name":"Fazenda Terra Viva","coords":{"degMinSec":"23°21'36''S 047°32'10''W","decimal":{"lat":-23.360000000000003,"lon":-47.53611111111111}},"type":"HP","city":"Porto Feliz","uf":"SP","elev":601},
{"icao":"SJ2R","name":"Fazenda Brejinho","coords":{"degMinSec":"08°36'48''S 037°15'34''W","decimal":{"lat":-8.613333333333333,"lon":-37.25944444444445}},"type":"AD","city":"Buíque","uf":"PE","elev":815},
{"icao":"SJ2U","name":"AERODROMO FAZENDA LANDI","coords":{"degMinSec":"16°58'43''S 055°39'36''W","decimal":{"lat":-16.97861111111111,"lon":-55.66}},"type":"AD","city":"Barão de Melgaço","uf":"MT","elev":143},
{"icao":"SJIW","name":"Helicenter Alphaville","coords":{"degMinSec":"23°28'31''S 046°49'43''W","decimal":{"lat":-23.475277777777777,"lon":-46.828611111111115}},"type":"HP","city":"Santana de Parnaíba","uf":"SP","elev":835},
{"icao":"SNVI","name":"Aeródromo público Mello Viana","coords":{"degMinSec":"21°47'21''S 045°16'05''W","decimal":{"lat":-21.789166666666667,"lon":-45.268055555555556}},"type":"AD","city":"Três Corações","uf":"MG","elev":976.4},
{"icao":"SSYK","name":"Fazenda Mandaçaia","coords":{"degMinSec":"23°37'26''S 048°29'34''W","decimal":{"lat":-23.62388888888889,"lon":-48.49277777777778}},"type":"AD","city":"Buri","uf":"SP","elev":600},
{"icao":"SWBC","name":"BARCELOS","coords":{"degMinSec":"00°58'52''S 062°55'10''W","decimal":{"lat":-0.9811111111111112,"lon":-62.919444444444444}},"type":"AD","city":"Barcelos","uf":"AM","elev":34},
{"icao":"SWME","name":"MINEIROS","coords":{"degMinSec":"17°33'05''S 052°33'24''W","decimal":{"lat":-17.55138888888889,"lon":-52.556666666666665}},"type":"AD","city":"Mineiros","uf":"GO","elev":843},
{"icao":"SNVZ","name":"Fazenda Flor da Serra","coords":{"degMinSec":"14°06'03''S 046°10'47''W","decimal":{"lat":-14.100833333333332,"lon":-46.17972222222222}},"type":"AD","city":"Jaborandi","uf":"BA","elev":994},
{"icao":"SSAH","name":"Fazenda Sorriso","coords":{"degMinSec":"11°31'39''S 051°13'23''W","decimal":{"lat":-11.527500000000002,"lon":-51.223055555555554}},"type":"AD","city":"São Félix do Araguaia","uf":"MT","elev":222},
{"icao":"SSIX","name":"Fazenda Santa Cláudia","coords":{"degMinSec":"17°10'32''S 049°30'32''W","decimal":{"lat":-17.175555555555558,"lon":-49.50888888888889}},"type":"HP","city":"Mairipotaba","uf":"GO","elev":662},
{"icao":"SSYE","name":"Fazenda Gabriela","coords":{"degMinSec":"15°19'01''S 058°30'32''W","decimal":{"lat":-15.316944444444443,"lon":-58.50888888888889}},"type":"AD","city":"Araputanga","uf":"MT","elev":379},
{"icao":"SWHD","name":"Fazenda Ipuitã","coords":{"degMinSec":"23°01'19''S 053°54'04''W","decimal":{"lat":-23.021944444444443,"lon":-53.901111111111106}},"type":"AD","city":"Naviraí","uf":"MS","elev":324},
{"icao":"SWXX","name":"Fazenda Canadá","coords":{"degMinSec":"18°51'43''S 048°25'23''W","decimal":{"lat":-18.861944444444447,"lon":-48.42305555555555}},"type":"AD","city":"Uberlândia","uf":"MG","elev":853},
{"icao":"SD7E","name":"FAZENDA CANAÃ","coords":{"degMinSec":"04°57'40''S 042°47'32''W","decimal":{"lat":-4.961111111111111,"lon":-42.79222222222222}},"type":"AD","city":"Teresina","uf":"PI","elev":122},
{"icao":"SDA4","name":"Fazenda Maristela","coords":{"degMinSec":"22°57'17''S 045°36'14''W","decimal":{"lat":-22.954722222222223,"lon":-45.60388888888889}},"type":"AD","city":"Tremembé","uf":"SP","elev":545},
{"icao":"SIBU","name":"JERÔNIMO SÉRGIO ROSADO MAIA","coords":{"degMinSec":"06°21'45''S 037°45'19''W","decimal":{"lat":-6.3625,"lon":-37.75527777777778}},"type":"AD","city":"Catolé do Rocha","uf":"PB","elev":272},
{"icao":"SIPG","name":"Fazenda Água Preta","coords":{"degMinSec":"14°08'15''S 051°28'09''W","decimal":{"lat":-14.1375,"lon":-51.469166666666666}},"type":"AD","city":"Cocalinho","uf":"MT","elev":247},
{"icao":"SWBG","name":"ANDRÉ ANTÔNIO MAGGI","coords":{"degMinSec":"15°11'36''S 059°23'07''W","decimal":{"lat":-15.193333333333333,"lon":-59.38527777777778}},"type":"AD","city":"Pontes e Lacerda","uf":"MT","elev":247},
{"icao":"SD4Y","name":"Fazenda Vista Alegre","coords":{"degMinSec":"16°46'13''S 044°47'36''W","decimal":{"lat":-16.77027777777778,"lon":-44.79333333333333}},"type":"AD","city":"Ibiaí","uf":"MG","elev":655},
{"icao":"SD7N","name":"Fazenda Lago Azul","coords":{"degMinSec":"21°57'12''S 054°48'52''W","decimal":{"lat":-21.953333333333333,"lon":-54.81444444444444}},"type":"AD","city":"Itaporã","uf":"MS","elev":327},
{"icao":"SD7S","name":"Fazenda Guatambu","coords":{"degMinSec":"09°44'11''S 055°26'48''W","decimal":{"lat":-9.736388888888888,"lon":-55.446666666666665}},"type":"AD","city":"Novo Mundo","uf":"MT","elev":325},
{"icao":"SD7T","name":"BASE DE OPERAÇÕES AÉREAS DA PRF","coords":{"degMinSec":"29°58'21''S 051°10'34''W","decimal":{"lat":-29.972499999999997,"lon":-51.17611111111111}},"type":"HP","city":"Porto Alegre","uf":"RS","elev":10},
{"icao":"SD7U","name":"FAZENDA RIO PRETO","coords":{"degMinSec":"15°03'09''S 057°58'07''W","decimal":{"lat":-15.0525,"lon":-57.968611111111116}},"type":"AD","city":"Salto do Céu","uf":"MT","elev":206},
{"icao":"SD7X","name":"Fly Aviação Agrícola","coords":{"degMinSec":"12°08'21''S 056°07'21''W","decimal":{"lat":-12.139166666666666,"lon":-56.1225}},"type":"AD","city":"Ipiranga do Norte","uf":"MT","elev":384},
{"icao":"SD7Y","name":"Villa Pinheiro","coords":{"degMinSec":"23°38'24''S 047°22'13''W","decimal":{"lat":-23.64,"lon":-47.37027777777778}},"type":"HP","city":"Piedade","uf":"SP","elev":855},
{"icao":"SD7Z","name":"Fazenda Tartus","coords":{"degMinSec":"06°15'10''S 047°08'57''W","decimal":{"lat":-6.252777777777778,"lon":-47.149166666666666}},"type":"AD","city":"Porto Franco","uf":"MA","elev":227},
{"icao":"SD82","name":"Condomínio Village da Serra","coords":{"degMinSec":"04°15'39''S 038°56'26''W","decimal":{"lat":-4.260833333333333,"lon":-38.940555555555555}},"type":"HP","city":"Guaramiranga","uf":"CE","elev":919},
{"icao":"SD83","name":"Haras Rei Davi","coords":{"degMinSec":"20°09'56''S 044°22'03''W","decimal":{"lat":-20.165555555555553,"lon":-44.3675}},"type":"HP","city":"Itatiaiuçu","uf":"MG","elev":854},
{"icao":"SSLB","name":"Fazenda São Paulino","coords":{"degMinSec":"19°01'32''S 055°55'30''W","decimal":{"lat":-19.025555555555556,"lon":-55.925}},"type":"AD","city":"Corumbá","uf":"MS","elev":120},
{"icao":"SWQZ","name":"Portofino","coords":{"degMinSec":"22°42'33''S 045°36'31''W","decimal":{"lat":-22.709166666666665,"lon":-45.60861111111111}},"type":"HP","city":"Campos do Jordão","uf":"SP","elev":1675},
{"icao":"SWYM","name":"Fazenda Anhanguera","coords":{"degMinSec":"14°38'30''S 059°27'00''W","decimal":{"lat":-14.641666666666666,"lon":-59.45}},"type":"AD","city":"Conquista D'Oeste","uf":"MT","elev":290},
{"icao":"SDP7","name":"Antenor Duarte Vilela","coords":{"degMinSec":"20°29'38''S 048°40'23''W","decimal":{"lat":-20.49388888888889,"lon":-48.67305555555555}},"type":"AD","city":"Barretos","uf":"SP","elev":565},
{"icao":"SDNQ","name":"Fazenda Água Limpa","coords":{"degMinSec":"09°58'50''S 067°29'28''W","decimal":{"lat":-9.980555555555556,"lon":-67.49111111111111}},"type":"AD","city":"Rio Branco","uf":"AC","elev":197},
{"icao":"SIWR","name":"Fazenda Amazonas","coords":{"degMinSec":"13°48'03''S 050°29'25''W","decimal":{"lat":-13.800833333333333,"lon":-50.49027777777778}},"type":"AD","city":"Nova Crixás","uf":"GO","elev":280},
{"icao":"SWIT","name":"Condomínio de Voo Itaipu - CVI","coords":{"degMinSec":"25°29'04''S 054°26'29''W","decimal":{"lat":-25.484444444444446,"lon":-54.44138888888889}},"type":"AD","city":"Santa Terezinha de Itaipu","uf":"PR","elev":273},
{"icao":"SWQO","name":"Fazenda Renascença","coords":{"degMinSec":"20°23'15''S 048°54'56''W","decimal":{"lat":-20.3875,"lon":-48.91555555555556}},"type":"AD","city":"Frutal","uf":"MG","elev":475},
{"icao":"SDIG","name":"Ibitinga","coords":{"degMinSec":"21°44'50''S 048°51'21''W","decimal":{"lat":-21.747222222222224,"lon":-48.85583333333334}},"type":"AD","city":"Ibitinga","uf":"SP","elev":542},
{"icao":"SDL6","name":"Reunidas do Pontal","coords":{"degMinSec":"17°59'21''S 050°01'13''W","decimal":{"lat":-17.989166666666666,"lon":-50.02027777777778}},"type":"AD","city":"Goiatuba","uf":"GO","elev":563},
{"icao":"SDL8","name":"Lagoa da Serra","coords":{"degMinSec":"13°58'06''S 051°27'06''W","decimal":{"lat":-13.968333333333334,"lon":-51.45166666666667}},"type":"AD","city":"Cocalinho","uf":"MT","elev":238},
{"icao":"SDL9","name":"Fazenda Gobbo","coords":{"degMinSec":"17°05'49''S 055°14'23''W","decimal":{"lat":-17.096944444444443,"lon":-55.23972222222222}},"type":"AD","city":"Santo Antônio do Leverger","uf":"MT","elev":152},
{"icao":"SDUL","name":"Usina Santa Lydia","coords":{"degMinSec":"21°12'06''S 047°55'17''W","decimal":{"lat":-21.201666666666664,"lon":-47.921388888888885}},"type":"AD","city":"Ribeirão Preto","uf":"SP","elev":695},
{"icao":"SIYY","name":"SLDM","coords":{"degMinSec":"11°00'08''S 039°17'41''W","decimal":{"lat":-11.002222222222223,"lon":-39.29472222222222}},"type":"HP","city":"Santaluz","uf":"BA","elev":271},
{"icao":"SIZD","name":"DZ47","coords":{"degMinSec":"27°17'17''S 048°39'29''W","decimal":{"lat":-27.28805555555556,"lon":-48.658055555555556}},"type":"AD","city":"Tijucas","uf":"SC","elev":2},
{"icao":"SSLK","name":"Fazenda Três Lagoas","coords":{"degMinSec":"20°24'22''S 044°59'51''W","decimal":{"lat":-20.40611111111111,"lon":-44.9975}},"type":"AD","city":"Itapecerica","uf":"MG","elev":823},
{"icao":"SWNJ","name":"Fazenda Itaquerê","coords":{"degMinSec":"15°08'19''S 053°30'06''W","decimal":{"lat":-15.13861111111111,"lon":-53.501666666666665}},"type":"AD","city":"Novo São Joaquim","uf":"MT","elev":569},
{"icao":"SDGF","name":"Usina Santa Luzia","coords":{"degMinSec":"21°33'09''S 054°14'01''W","decimal":{"lat":-21.552500000000002,"lon":-54.23361111111111}},"type":"AD","city":"Nova Alvorada do Sul","uf":"MS","elev":407.2},
{"icao":"SDTK","name":"Parati","coords":{"degMinSec":"23°13'26''S 044°43'24''W","decimal":{"lat":-23.223888888888887,"lon":-44.723333333333336}},"type":"AD","city":"Paraty","uf":"RJ","elev":3},
{"icao":"SDWE","name":"Palmeiras","coords":{"degMinSec":"18°56'00''S 057°02'57''W","decimal":{"lat":-18.933333333333334,"lon":-57.049166666666665}},"type":"AD","city":"Corumbá","uf":"MS","elev":94},
{"icao":"SI34","name":"Aldeia Xuixuimene","coords":{"degMinSec":"00°51'04''N 054°39'01''W","decimal":{"lat":0.851111111111111,"lon":-54.650277777777774}},"type":"AD","city":"Almeirim","uf":"PA","elev":307},
{"icao":"SI4U","name":"Fazenda Bocalon","coords":{"degMinSec":"16°50'37''S 047°21'43''W","decimal":{"lat":-16.84361111111111,"lon":-47.36194444444445}},"type":"AD","city":"Cristalina","uf":"GO","elev":910},
{"icao":"SI79","name":"Fazenda San Francisco","coords":{"degMinSec":"13°20'14''S 052°50'23''W","decimal":{"lat":-13.337222222222223,"lon":-52.83972222222222}},"type":"AD","city":"Canarana","uf":"MT","elev":403},
{"icao":"SI7H","name":"Sítio Bela Vista","coords":{"degMinSec":"22°32'36''S 047°13'57''W","decimal":{"lat":-22.543333333333337,"lon":-47.2325}},"type":"AD","city":"Limeira","uf":"SP","elev":647},
{"icao":"SI7J","name":"Fazenda Marilândia","coords":{"degMinSec":"22°02'49''S 056°26'14''W","decimal":{"lat":-22.046944444444446,"lon":-56.43722222222222}},"type":"AD","city":"Bela Vista","uf":"MS","elev":235},
{"icao":"SI7L","name":"Prainha","coords":{"degMinSec":"01°47'02''S 053°29'20''W","decimal":{"lat":-1.7838888888888889,"lon":-53.48888888888889}},"type":"AD","city":"Prainha","uf":"PA","elev":46},
{"icao":"SIFQ","name":"Condomínio Menega","coords":{"degMinSec":"29°02'41''S 051°08'36''W","decimal":{"lat":-29.044722222222223,"lon":-51.14333333333333}},"type":"AD","city":"Flores da Cunha","uf":"RS","elev":763},
{"icao":"SJ6Q","name":"JOSÉ ALENCAR THOMAS JUNIOR","coords":{"degMinSec":"17°09'55''S 042°49'51''W","decimal":{"lat":-17.165277777777778,"lon":-42.83083333333334}},"type":"AD","city":"Turmalina","uf":"MG","elev":903},
{"icao":"SNMD","name":"Mundico Coelho","coords":{"degMinSec":"06°50'13''S 056°50'39''W","decimal":{"lat":-6.836944444444444,"lon":-56.844166666666666}},"type":"AD","city":"Itaituba","uf":"PA","elev":205},
{"icao":"SNZL","name":"Usina São Luiz","coords":{"degMinSec":"22°56'51''S 049°45'40''W","decimal":{"lat":-22.9475,"lon":-49.76111111111111}},"type":"AD","city":"Ourinhos","uf":"SP","elev":467},
{"icao":"SSCI","name":"Coxim","coords":{"degMinSec":"18°28'53''S 054°42'57''W","decimal":{"lat":-18.481388888888887,"lon":-54.715833333333336}},"type":"AD","city":"Coxim","uf":"MS","elev":294},
{"icao":"SSEX","name":"Estância Caiman","coords":{"degMinSec":"19°58'08''S 056°18'42''W","decimal":{"lat":-19.968888888888888,"lon":-56.31166666666666}},"type":"AD","city":"Miranda","uf":"MS","elev":130},
{"icao":"SSFZ","name":"Fazenda Carolina","coords":{"degMinSec":"15°35'41''S 046°36'12''W","decimal":{"lat":-15.594722222222222,"lon":-46.60333333333333}},"type":"AD","city":"Buritis","uf":"MG","elev":570},
{"icao":"SWNE","name":"Nelson Saldanha","coords":{"degMinSec":"17°53'04''S 039°22'00''W","decimal":{"lat":-17.884444444444444,"lon":-39.36666666666667}},"type":"AD","city":"Nova Viçosa","uf":"BA","elev":3},
{"icao":"SWPY","name":"PRIMAVERA DO LESTE","coords":{"degMinSec":"15°33'45''S 054°19'50''W","decimal":{"lat":-15.5625,"lon":-54.330555555555556}},"type":"AD","city":"Primavera do Leste","uf":"MT","elev":655},
{"icao":"SSQC","name":"Siqueira Campos","coords":{"degMinSec":"23°40'29''S 049°48'56''W","decimal":{"lat":-23.674722222222222,"lon":-49.815555555555555}},"type":"AD","city":"Siqueira Campos","uf":"PR","elev":705},
{"icao":"SWCS","name":"Corticeiras","coords":{"degMinSec":"30°58'43''S 051°56'14''W","decimal":{"lat":-30.97861111111111,"lon":-51.93722222222222}},"type":"AD","city":"Cristal","uf":"RS","elev":24},
{"icao":"SBES","name":"Tenente Jorge Henrique Möller","coords":{"degMinSec":"22°49'00''S 042°05'33''W","decimal":{"lat":-22.816666666666666,"lon":-42.0925}},"type":"AD","city":"São Pedro da Aldeia","uf":"RJ","elev":18.72},
{"icao":"SI4H","name":"Fazenda Estrela do Norte - Agroterenas","coords":{"degMinSec":"13°43'18''S 053°05'39''W","decimal":{"lat":-13.721666666666668,"lon":-53.094166666666666}},"type":"AD","city":"Água Boa","uf":"MT","elev":367},
{"icao":"SI4J","name":"Raul Saboia","coords":{"degMinSec":"15°51'14''S 047°51'43''W","decimal":{"lat":-15.85388888888889,"lon":-47.86194444444445}},"type":"HP","city":"Brasília","uf":"DF","elev":1014},
{"icao":"SIED","name":"Fazenda Espadim","coords":{"degMinSec":"23°47'39''S 055°20'09''W","decimal":{"lat":-23.79416666666667,"lon":-55.33583333333333}},"type":"AD","city":"Paranhos","uf":"MS","elev":378},
{"icao":"SNQG","name":"Cangapara","coords":{"degMinSec":"06°50'46''S 043°04'41''W","decimal":{"lat":-6.846111111111111,"lon":-43.07805555555556}},"type":"AD","city":"Floriano","uf":"PI","elev":210},
{"icao":"SSWT","name":"Fazenda Vaticano","coords":{"degMinSec":"21°17'07''S 056°07'13''W","decimal":{"lat":-21.28527777777778,"lon":-56.12027777777778}},"type":"AD","city":"Nioaque","uf":"MS","elev":320},
{"icao":"SWTM","name":"Moro Golf Club","coords":{"degMinSec":"25°06'53''S 050°10'20''W","decimal":{"lat":-25.114722222222223,"lon":-50.17222222222222}},"type":"HP","city":"Ponta Grossa","uf":"PR","elev":884},
{"icao":"SDPJ","name":"Cidade Empresarial","coords":{"degMinSec":"16°45'00''S 049°18'17''W","decimal":{"lat":-16.75,"lon":-49.30472222222222}},"type":"HP","city":"Aparecida de Goiânia","uf":"GO","elev":902},
{"icao":"SIUR","name":"Fazenda Ribeirão","coords":{"degMinSec":"19°36'35''S 053°29'47''W","decimal":{"lat":-19.609722222222224,"lon":-53.49638888888889}},"type":"AD","city":"Camapuã","uf":"MS","elev":451},
{"icao":"SJVD","name":"Fazenda Santo André IV","coords":{"degMinSec":"14°13'28''S 053°27'34''W","decimal":{"lat":-14.224444444444444,"lon":-53.45944444444445}},"type":"AD","city":"Paranatinga","uf":"MT","elev":425},
{"icao":"SJXZ","name":"Antônio Covre","coords":{"degMinSec":"16°44'03''S 039°25'47''W","decimal":{"lat":-16.734166666666667,"lon":-39.42972222222222}},"type":"AD","city":"Itabela","uf":"BA","elev":105},
{"icao":"SNUF","name":"Alfa Airport Posse","coords":{"degMinSec":"22°34'20''S 046°56'32''W","decimal":{"lat":-22.572222222222223,"lon":-46.94222222222222}},"type":"AD","city":"São Paulo","uf":"SP","elev":717},
{"icao":"SWET","name":"KKS-37","coords":{"degMinSec":"22°44'20''S 043°29'37''W","decimal":{"lat":-22.73888888888889,"lon":-43.493611111111115}},"type":"HP","city":"Nova Iguaçu","uf":"RJ","elev":44},
{"icao":"SWPN","name":"Pesqueiro Pantanal","coords":{"degMinSec":"17°19'29''S 055°31'44''W","decimal":{"lat":-17.32472222222222,"lon":-55.528888888888886}},"type":"AD","city":"Santo Antônio do Leverger","uf":"MT","elev":136},
{"icao":"SWXY","name":"Fazenda Igurê","coords":{"degMinSec":"22°15'06''S 049°36'20''W","decimal":{"lat":-22.251666666666665,"lon":-49.605555555555554}},"type":"HP","city":"Gália","uf":"SP","elev":747},
{"icao":"SDSS","name":"Fazenda Baia das Pedras","coords":{"degMinSec":"19°15'15''S 055°46'59''W","decimal":{"lat":-19.254166666666666,"lon":-55.783055555555556}},"type":"AD","city":"Aquidauana","uf":"MS","elev":128},
{"icao":"SIXJ","name":"Volare Helicentro","coords":{"degMinSec":"20°09'58''S 044°55'07''W","decimal":{"lat":-20.16611111111111,"lon":-44.91861111111111}},"type":"HP","city":"Divinópolis","uf":"MG","elev":756},
{"icao":"SIYA","name":"CAT - Clube Aéreo Taquari","coords":{"degMinSec":"12°47'30''S 060°10'18''W","decimal":{"lat":-12.791666666666666,"lon":-60.17166666666667}},"type":"AD","city":"Vilhena","uf":"RO","elev":593},
{"icao":"SJBD","name":"Mundo Plaza","coords":{"degMinSec":"12°58'47''S 038°27'41''W","decimal":{"lat":-12.979722222222222,"lon":-38.46138888888889}},"type":"HP","city":"Salvador","uf":"BA","elev":147},
{"icao":"SJFT","name":"Fazenda Triunfo do Rio Turvo","coords":{"degMinSec":"10°05'35''S 057°43'37''W","decimal":{"lat":-10.093055555555557,"lon":-57.72694444444445}},"type":"AD","city":"Nova Bandeirantes","uf":"MT","elev":259},
{"icao":"SJVK","name":"Pian","coords":{"degMinSec":"31°04'48''S 051°53'44''W","decimal":{"lat":-31.08,"lon":-51.89555555555555}},"type":"AD","city":"São Lourenço do Sul","uf":"RS","elev":22},
{"icao":"SNPS","name":"Fazenda Seriema","coords":{"degMinSec":"22°03'13''S 053°20'21''W","decimal":{"lat":-22.053611111111113,"lon":-53.33916666666667}},"type":"AD","city":"Nova Andradina","uf":"MS","elev":439},
{"icao":"SSJR","name":"Fazenda São Roque","coords":{"degMinSec":"13°23'22''S 055°14'51''W","decimal":{"lat":-13.389444444444443,"lon":-55.2475}},"type":"AD","city":"Sorriso","uf":"MT","elev":470},
{"icao":"SSNV","name":"Fazenda Novo Horizonte","coords":{"degMinSec":"19°13'59''S 057°01'47''W","decimal":{"lat":-19.233055555555556,"lon":-57.02972222222222}},"type":"AD","city":"Corumbá","uf":"MS","elev":90},
{"icao":"SWQD","name":"WYDA","coords":{"degMinSec":"23°26'36''S 047°26'11''W","decimal":{"lat":-23.443333333333335,"lon":-47.436388888888885}},"type":"HP","city":"Sorocaba","uf":"SP","elev":585},
{"icao":"SWTB","name":"Tarobá","coords":{"degMinSec":"25°32'53''S 054°29'07''W","decimal":{"lat":-25.548055555555557,"lon":-54.48527777777778}},"type":"AD","city":"Santa Terezinha de Itaipu","uf":"PR","elev":224},
{"icao":"SBJE","name":"Comandante Ariston Pessoa","coords":{"degMinSec":"02°54'24''S 040°21'29''W","decimal":{"lat":-2.9066666666666667,"lon":-40.35805555555556}},"type":"AD","city":"Cruz","uf":"CE","elev":27},
{"icao":"SBPA","name":"Salgado Filho","coords":{"degMinSec":"29°59'41''S 051°10'16''W","decimal":{"lat":-29.994722222222222,"lon":-51.17111111111111}},"type":"AD","city":"Porto Alegre","uf":"RS","elev":9},
{"icao":"SDLZ","name":"Campo Verde","coords":{"degMinSec":"15°31'43''S 055°08'29''W","decimal":{"lat":-15.528611111111111,"lon":-55.14138888888889}},"type":"AD","city":"Campo Verde","uf":"MT","elev":757},
{"icao":"SI68","name":"Gelindo Stefanuto","coords":{"degMinSec":"13°43'53''S 057°53'30''W","decimal":{"lat":-13.731388888888889,"lon":-57.891666666666666}},"type":"AD","city":"Campo Novo do Parecis","uf":"MT","elev":593},
{"icao":"SIEA","name":"Fazenda Ibiporã","coords":{"degMinSec":"21°27'59''S 050°47'55''W","decimal":{"lat":-21.46638888888889,"lon":-50.79861111111111}},"type":"AD","city":"Guararapes","uf":"SP","elev":409},
{"icao":"SIMW","name":"Fazenda Retiro do Cervo I","coords":{"degMinSec":"20°20'58''S 053°58'15''W","decimal":{"lat":-20.349444444444444,"lon":-53.97083333333334}},"type":"AD","city":"Jaraguari","uf":"MS","elev":485},
{"icao":"SJ3N","name":"Fazenda Inhu-Guassu","coords":{"degMinSec":"23°31'06''S 055°29'38''W","decimal":{"lat":-23.51833333333333,"lon":-55.49388888888889}},"type":"AD","city":"Paranhos","uf":"MS","elev":410},
{"icao":"SJ43","name":"Genesisagro - Grajaú","coords":{"degMinSec":"05°54'38''S 046°17'17''W","decimal":{"lat":-5.910555555555556,"lon":-46.28805555555555}},"type":"AD","city":"Grajaú","uf":"MA","elev":314},
{"icao":"SJ44","name":"FAZENDA CHAPADÃO DO APUÍ","coords":{"degMinSec":"06°49'55''S 059°18'24''W","decimal":{"lat":-6.831944444444444,"lon":-59.306666666666665}},"type":"AD","city":"Apuí","uf":"AM","elev":196},
{"icao":"SJ47","name":"Extrema Business Park","coords":{"degMinSec":"22°50'23''S 046°20'09''W","decimal":{"lat":-22.83972222222222,"lon":-46.33583333333333}},"type":"HP","city":"Extrema","uf":"MG","elev":928},
{"icao":"SJ48","name":"Fazenda São Vicente","coords":{"degMinSec":"15°54'51''S 055°18'15''W","decimal":{"lat":-15.914166666666667,"lon":-55.30416666666667}},"type":"AD","city":"Jaciara","uf":"MT","elev":833},
{"icao":"SJ4A","name":"Fazenda Maria Helena","coords":{"degMinSec":"06°21'40''S 043°41'18''W","decimal":{"lat":-6.361111111111111,"lon":-43.68833333333333}},"type":"AD","city":"São João dos Patos","uf":"MA","elev":461},
{"icao":"SJ4B","name":"Morada do Sol","coords":{"degMinSec":"02°40'52''N 060°53'26''W","decimal":{"lat":2.681111111111111,"lon":-60.89055555555556}},"type":"AD","city":"Boa Vista","uf":"RR","elev":82},
{"icao":"SJ4C","name":"Fazenda São João","coords":{"degMinSec":"20°50'32''S 055°58'00''W","decimal":{"lat":-20.842222222222222,"lon":-55.96666666666667}},"type":"AD","city":"Nioaque","uf":"MS","elev":198},
{"icao":"SJ4E","name":"Barras","coords":{"degMinSec":"04°12'16''S 042°15'05''W","decimal":{"lat":-4.204444444444444,"lon":-42.25138888888889}},"type":"AD","city":"Barras","uf":"PI","elev":88},
{"icao":"SJ4F","name":"Fazenda São José dos Jesuítas","coords":{"degMinSec":"21°28'53''S 052°10'35''W","decimal":{"lat":-21.481388888888887,"lon":-52.17638888888889}},"type":"AD","city":"Brasilândia","uf":"MS","elev":399},
{"icao":"SJ4G","name":"9º BPM","coords":{"degMinSec":"09°21'30''S 037°59'11''W","decimal":{"lat":-9.358333333333333,"lon":-37.98638888888889}},"type":"HP","city":"Delmiro Gouveia","uf":"AL","elev":260},
{"icao":"SJ4H","name":"FAZENDA ÁGUA AZUL","coords":{"degMinSec":"10°14'10''S 064°44'37''W","decimal":{"lat":-10.23611111111111,"lon":-64.74361111111111}},"type":"AD","city":"Nova Mamoré","uf":"RO","elev":163.86},
{"icao":"SJSP","name":"Caragoatá","coords":{"degMinSec":"23°14'37''S 044°35'46''W","decimal":{"lat":-23.24361111111111,"lon":-44.596111111111114}},"type":"HP","city":"Paraty","uf":"RJ","elev":20},
{"icao":"SJST","name":"Umbará Energy","coords":{"degMinSec":"25°36'14''S 049°17'37''W","decimal":{"lat":-25.60388888888889,"lon":-49.29361111111111}},"type":"HP","city":"Curitiba","uf":"PR","elev":853},
{"icao":"SNZR","name":"Pedro Rabelo de Souza","coords":{"degMinSec":"17°14'35''S 046°52'53''W","decimal":{"lat":-17.243055555555557,"lon":-46.88138888888889}},"type":"AD","city":"Paracatu","uf":"MG","elev":730},
{"icao":"SSDP","name":"Fazenda Fortaleza do Guaporé","coords":{"degMinSec":"14°27'49''S 060°10'30''W","decimal":{"lat":-14.46361111111111,"lon":-60.175}},"type":"AD","city":"Vila Bela da Santíssima Trindade","uf":"MT","elev":237},
{"icao":"SSIM","name":"Forquilhinha - Criciúma","coords":{"degMinSec":"28°43'28''S 049°25'16''W","decimal":{"lat":-28.724444444444444,"lon":-49.42111111111111}},"type":"AD","city":"Forquilhinha","uf":"SC","elev":28},
{"icao":"SSKZ","name":"Carazinho","coords":{"degMinSec":"28°19'18''S 052°49'00''W","decimal":{"lat":-28.321666666666665,"lon":-52.81666666666667}},"type":"AD","city":"Carazinho","uf":"RS","elev":590},
{"icao":"SSSB","name":"São Borja","coords":{"degMinSec":"28°39'17''S 056°02'05''W","decimal":{"lat":-28.654722222222222,"lon":-56.03472222222222}},"type":"AD","city":"São Borja","uf":"RS","elev":80},
{"icao":"SDEV","name":"Fazenda Ventania","coords":{"degMinSec":"13°08'46''S 059°05'46''W","decimal":{"lat":-13.14611111111111,"lon":-59.096111111111114}},"type":"AD","city":"Campos de Júlio","uf":"MT","elev":530},
{"icao":"SDNL","name":"Fazenda Santa Claudina","coords":{"degMinSec":"22°31'01''S 054°40'41''W","decimal":{"lat":-22.516944444444444,"lon":-54.67805555555555}},"type":"AD","city":"Caarapó","uf":"MS","elev":374},
{"icao":"SDQN","name":"Fazenda Palmares 2","coords":{"degMinSec":"11°39'23''S 046°03'09''W","decimal":{"lat":-11.65638888888889,"lon":-46.052499999999995}},"type":"AD","city":"Barreiras","uf":"BA","elev":823},
{"icao":"SDTZ","name":"Fazenda Fortaleza","coords":{"degMinSec":"08°52'14''S 045°33'40''W","decimal":{"lat":-8.870555555555557,"lon":-45.56111111111111}},"type":"AD","city":"Santa Filomena","uf":"PI","elev":510},
{"icao":"SIGW","name":"Fazenda Serra Grande","coords":{"degMinSec":"08°20'36''S 045°31'05''W","decimal":{"lat":-8.343333333333334,"lon":-45.518055555555556}},"type":"AD","city":"Ribeiro Gonçalves","uf":"PI","elev":530},
{"icao":"SIIZ","name":"Fazenda Iporanga","coords":{"degMinSec":"13°45'30''S 049°28'23''W","decimal":{"lat":-13.758333333333333,"lon":-49.473055555555554}},"type":"AD","city":"Mutunópolis","uf":"GO","elev":384},
{"icao":"SIQR","name":"Fazenda Pioneira","coords":{"degMinSec":"12°06'10''S 052°26'04''W","decimal":{"lat":-12.102777777777778,"lon":-52.43444444444444}},"type":"AD","city":"Querência","uf":"MT","elev":333},
{"icao":"SIWG","name":"Ycatu","coords":{"degMinSec":"22°38'31''S 046°48'47''W","decimal":{"lat":-22.641944444444444,"lon":-46.81305555555555}},"type":"HP","city":"Amparo","uf":"SP","elev":695},
{"icao":"SJJM","name":"Fazenda São João","coords":{"degMinSec":"10°19'42''S 054°34'52''W","decimal":{"lat":-10.328333333333333,"lon":-54.58111111111111}},"type":"AD","city":"Matupá","uf":"MT","elev":296},
{"icao":"SSDN","name":"Fazenda Nova Fonteira","coords":{"degMinSec":"10°19'21''S 045°59'03''W","decimal":{"lat":-10.3225,"lon":-45.98416666666667}},"type":"AD","city":"Barreiras do Piauí","uf":"PI","elev":800},
{"icao":"SSEG","name":"Sementes Guerra","coords":{"degMinSec":"26°17'24''S 052°56'14''W","decimal":{"lat":-26.290000000000003,"lon":-52.93722222222222}},"type":"AD","city":"Renascença","uf":"PR","elev":773},
{"icao":"SSNN","name":"Fazenda Nova Fartura","coords":{"degMinSec":"14°26'27''S 054°46'02''W","decimal":{"lat":-14.440833333333334,"lon":-54.76722222222222}},"type":"AD","city":"Planalto da Serra","uf":"MT","elev":457},
{"icao":"SSQG","name":"Fazenda Bom Gosto","coords":{"degMinSec":"04°52'19''S 048°57'27''W","decimal":{"lat":-4.871944444444445,"lon":-48.9575}},"type":"AD","city":"Rondon do Pará","uf":"PA","elev":158},
{"icao":"SWJF","name":"Fazenda São Francisco","coords":{"degMinSec":"17°38'53''S 056°53'59''W","decimal":{"lat":-17.648055555555555,"lon":-56.89972222222222}},"type":"AD","city":"Corumbá","uf":"MS","elev":106},
{"icao":"SWVL","name":"Volkswagen São Carlos","coords":{"degMinSec":"22°03'49''S 047°52'27''W","decimal":{"lat":-22.06361111111111,"lon":-47.87416666666667}},"type":"HP","city":"São Carlos","uf":"SP","elev":821},
{"icao":"SWWE","name":"M. Baumann","coords":{"degMinSec":"26°02'09''S 049°30'03''W","decimal":{"lat":-26.035833333333336,"lon":-49.50083333333333}},"type":"AD","city":"Piên","uf":"PR","elev":952},
{"icao":"SDEC","name":"Empresarial Charles Darwin","coords":{"degMinSec":"08°03'56''S 034°53'48''W","decimal":{"lat":-8.065555555555557,"lon":-34.89666666666667}},"type":"HP","city":"Recife","uf":"PE","elev":141},
{"icao":"SDET","name":"Tietê","coords":{"degMinSec":"23°06'17''S 047°43'28''W","decimal":{"lat":-23.104722222222225,"lon":-47.724444444444444}},"type":"AD","city":"Tietê","uf":"SP","elev":501},
{"icao":"SDIE","name":"Fazenda Lagoa","coords":{"degMinSec":"17°45'52''S 046°32'49''W","decimal":{"lat":-17.764444444444443,"lon":-46.54694444444444}},"type":"AD","city":"Lagoa Grande","uf":"MG","elev":563},
{"icao":"SDUV","name":"Columbia","coords":{"degMinSec":"20°10'37''S 040°13'56''W","decimal":{"lat":-20.176944444444445,"lon":-40.23222222222223}},"type":"HP","city":"Serra","uf":"ES","elev":57},
{"icao":"SIBI","name":"Fazenda Boa Luz","coords":{"degMinSec":"10°50'17''S 037°11'46''W","decimal":{"lat":-10.838055555555556,"lon":-37.19611111111111}},"type":"AD","city":"Laranjeiras","uf":"SE","elev":52},
{"icao":"SICX","name":"Edifício Salvador Trade Center","coords":{"degMinSec":"12°59'02''S 038°27'13''W","decimal":{"lat":-12.983888888888888,"lon":-38.453611111111115}},"type":"HP","city":"Salvador","uf":"BA","elev":106},
{"icao":"SIHZ","name":"Nannai Resort e Spa","coords":{"degMinSec":"08°25'55''S 034°58'53''W","decimal":{"lat":-8.431944444444444,"lon":-34.981388888888894}},"type":"HP","city":"Ipojuca","uf":"PE","elev":3},
{"icao":"SIIL","name":"Civil Towers","coords":{"degMinSec":"12°59'21''S 038°26'54''W","decimal":{"lat":-12.989166666666666,"lon":-38.44833333333333}},"type":"HP","city":"Salvador","uf":"BA","elev":102},
{"icao":"SIPQ","name":"Office Park","coords":{"degMinSec":"08°15'18''S 034°56'52''W","decimal":{"lat":-8.255,"lon":-34.94777777777777}},"type":"HP","city":"Cabo de Santo Agostinho","uf":"PE","elev":34},
{"icao":"SIUE","name":"Suape","coords":{"degMinSec":"08°21'48''S 035°00'31''W","decimal":{"lat":-8.363333333333333,"lon":-35.00861111111111}},"type":"HP","city":"Ipojuca","uf":"PE","elev":62},
{"icao":"SIVU","name":"João Monteiro","coords":{"degMinSec":"20°25'23''S 040°19'57''W","decimal":{"lat":-20.423055555555557,"lon":-40.3325}},"type":"AD","city":"Vila Velha","uf":"ES","elev":4},
{"icao":"SIYP","name":"Empresarial Delman","coords":{"degMinSec":"09°40'26''S 035°43'07''W","decimal":{"lat":-9.673888888888888,"lon":-35.718611111111116}},"type":"HP","city":"Maceió","uf":"AL","elev":37},
{"icao":"SJAE","name":"Hospital Estadual Dr. Jayme Santos Neves","coords":{"degMinSec":"20°12'04''S 040°13'41''W","decimal":{"lat":-20.20111111111111,"lon":-40.22805555555556}},"type":"HP","city":"Serra","uf":"ES","elev":27},
{"icao":"SJDG","name":"Jorge de Barros Carvalho","coords":{"degMinSec":"22°53'15''S 049°53'29''W","decimal":{"lat":-22.8875,"lon":-49.89138888888889}},"type":"AD","city":"Salto Grande","uf":"SP","elev":476},
{"icao":"SJFR","name":"Trancoso Rio Frade","coords":{"degMinSec":"16°35'08''S 039°14'09''W","decimal":{"lat":-16.585555555555555,"lon":-39.23583333333333}},"type":"AD","city":"Porto Seguro","uf":"BA","elev":78},
{"icao":"SJIE","name":"Residência Oficial","coords":{"degMinSec":"20°19'38''S 040°16'09''W","decimal":{"lat":-20.327222222222222,"lon":-40.26916666666666}},"type":"HP","city":"Vila Velha","uf":"ES","elev":16},
{"icao":"SJOB","name":"Hospital da Bahia","coords":{"degMinSec":"12°59'15''S 038°27'03''W","decimal":{"lat":-12.987499999999999,"lon":-38.450833333333335}},"type":"HP","city":"Salvador","uf":"BA","elev":32},
{"icao":"SJOC","name":"CEO","coords":{"degMinSec":"12°58'46''S 038°27'08''W","decimal":{"lat":-12.979444444444445,"lon":-38.452222222222225}},"type":"HP","city":"Salvador","uf":"BA","elev":139},
{"icao":"SJUA","name":"Fazenda ABC","coords":{"degMinSec":"15°22'26''S 046°19'52''W","decimal":{"lat":-15.373888888888889,"lon":-46.33111111111111}},"type":"AD","city":"Buritis","uf":"MG","elev":586},
{"icao":"SNBP","name":"Praia da Costa","coords":{"degMinSec":"20°20'36''S 040°17'23''W","decimal":{"lat":-20.343333333333334,"lon":-40.28972222222222}},"type":"HP","city":"Vila Velha","uf":"ES","elev":57},
{"icao":"SNHY","name":"Hospital Esperança","coords":{"degMinSec":"08°04'01''S 034°53'42''W","decimal":{"lat":-8.066944444444443,"lon":-34.894999999999996}},"type":"HP","city":"Recife","uf":"PE","elev":48},
{"icao":"SNLX","name":"Condomínio Laguna","coords":{"degMinSec":"09°42'11''S 035°48'03''W","decimal":{"lat":-9.703055555555554,"lon":-35.80083333333333}},"type":"HP","city":"Marechal Deodoro","uf":"AL","elev":4},
{"icao":"SNML","name":"Manduca Leão","coords":{"degMinSec":"09°32'39''S 035°49'29''W","decimal":{"lat":-9.544166666666667,"lon":-35.82472222222223}},"type":"AD","city":"Rio Largo","uf":"AL","elev":123},
{"icao":"SNOD","name":"Mucugê Village Resort Hotel","coords":{"degMinSec":"16°30'00''S 039°04'19''W","decimal":{"lat":-16.5,"lon":-39.07194444444445}},"type":"HP","city":"Porto Seguro","uf":"BA","elev":20},
{"icao":"SNWB","name":"Bom Sossego","coords":{"degMinSec":"16°22'52''S 039°04'52''W","decimal":{"lat":-16.38111111111111,"lon":-39.08111111111111}},"type":"AD","city":"Porto Seguro","uf":"BA","elev":63},
{"icao":"SNWN","name":"Alexandre Castro e Silva","coords":{"degMinSec":"08°06'42''S 034°53'34''W","decimal":{"lat":-8.111666666666666,"lon":-34.89277777777778}},"type":"HP","city":"Recife","uf":"PE","elev":60},
{"icao":"SNWY","name":"Rodoviária","coords":{"degMinSec":"20°19'19''S 040°21'11''W","decimal":{"lat":-20.321944444444444,"lon":-40.35305555555556}},"type":"HP","city":"Vitória","uf":"ES","elev":2},
{"icao":"SNYG","name":"Naturágua","coords":{"degMinSec":"03°49'31''S 038°28'17''W","decimal":{"lat":-3.8252777777777776,"lon":-38.47138888888889}},"type":"HP","city":"Fortaleza","uf":"CE","elev":23},
{"icao":"SNZM","name":"JCPM Trade Center","coords":{"degMinSec":"08°05'23''S 034°52'55''W","decimal":{"lat":-8.089722222222223,"lon":-34.88194444444444}},"type":"HP","city":"Recife","uf":"PE","elev":86},
{"icao":"SSFP","name":"Fazenda Porto Rancho","coords":{"degMinSec":"16°22'25''S 039°19'13''W","decimal":{"lat":-16.37361111111111,"lon":-39.32027777777778}},"type":"HP","city":"Santa Cruz Cabrália","uf":"BA","elev":114},
{"icao":"SSJI","name":"Jardim","coords":{"degMinSec":"21°29'34''S 056°09'09''W","decimal":{"lat":-21.49277777777778,"lon":-56.152499999999996}},"type":"AD","city":"Jardim","uf":"MS","elev":321},
{"icao":"SSLV","name":"Jerusalem Medical Center","coords":{"degMinSec":"08°03'53''S 034°53'32''W","decimal":{"lat":-8.064722222222223,"lon":-34.89222222222222}},"type":"HP","city":"Recife","uf":"PE","elev":73},
{"icao":"SSWW","name":"VR Aviation","coords":{"degMinSec":"12°58'54''S 038°28'08''W","decimal":{"lat":-12.981666666666667,"lon":-38.46888888888889}},"type":"HP","city":"Salvador","uf":"BA","elev":40},
{"icao":"SSZI","name":"Cidadelle","coords":{"degMinSec":"14°47'12''S 039°14'44''W","decimal":{"lat":-14.786666666666667,"lon":-39.245555555555555}},"type":"HP","city":"Itabuna","uf":"BA","elev":43},
{"icao":"SWDA","name":"Centro Administrativo da Bahia - CAB","coords":{"degMinSec":"12°56'51''S 038°25'55''W","decimal":{"lat":-12.9475,"lon":-38.43194444444444}},"type":"HP","city":"Salvador","uf":"BA","elev":62},
{"icao":"SWDL","name":"Del Rey","coords":{"degMinSec":"12°59'34''S 038°26'24''W","decimal":{"lat":-12.992777777777777,"lon":-38.44}},"type":"HP","city":"Salvador","uf":"BA","elev":8},
{"icao":"SWKY","name":"Maravilha","coords":{"degMinSec":"12°48'42''S 038°14'58''W","decimal":{"lat":-12.811666666666667,"lon":-38.24944444444444}},"type":"HP","city":"Camaçari","uf":"BA","elev":11},
{"icao":"SWOD","name":"Ondina","coords":{"degMinSec":"13°00'33''S 038°30'14''W","decimal":{"lat":-13.009166666666667,"lon":-38.50388888888889}},"type":"HP","city":"Salvador","uf":"BA","elev":54},
{"icao":"SWUM","name":"Praia Grande","coords":{"degMinSec":"20°02'16''S 040°10'44''W","decimal":{"lat":-20.03777777777778,"lon":-40.178888888888885}},"type":"HP","city":"Fundão","uf":"ES","elev":16},
{"icao":"SWXI","name":"Praia do Paiva","coords":{"degMinSec":"08°14'21''S 034°56'17''W","decimal":{"lat":-8.239166666666666,"lon":-34.93805555555555}},"type":"HP","city":"Jaboatão dos Guararapes","uf":"PE","elev":1},
{"icao":"SWZU","name":"Cepasa","coords":{"degMinSec":"08°07'42''S 035°00'47''W","decimal":{"lat":-8.128333333333334,"lon":-35.01305555555555}},"type":"HP","city":"Jaboatão dos Guararapes","uf":"PE","elev":91},
{"icao":"SJHJ","name":"Fazenda São João","coords":{"degMinSec":"08°22'24''S 045°08'16''W","decimal":{"lat":-8.373333333333333,"lon":-45.13777777777778}},"type":"AD","city":"Baixa Grande do Ribeiro","uf":"PI","elev":516},
{"icao":"SJQZ","name":"Fazenda Peça Rara Agropecuária II","coords":{"degMinSec":"12°25'31''S 062°08'35''W","decimal":{"lat":-12.425277777777778,"lon":-62.143055555555556}},"type":"AD","city":"Alta Floresta D'Oeste","uf":"RO","elev":202},
{"icao":"SNOI","name":"Estância Irmãos Martins","coords":{"degMinSec":"22°00'18''S 050°29'21''W","decimal":{"lat":-22.005,"lon":-50.48916666666667}},"type":"AD","city":"Tupã","uf":"SP","elev":430},
{"icao":"SSHY","name":"Hospital Universitário Cajuru","coords":{"degMinSec":"25°26'11''S 049°14'42''W","decimal":{"lat":-25.43638888888889,"lon":-49.245}},"type":"HP","city":"Curitiba","uf":"PR","elev":921},
{"icao":"SSXP","name":"Fazenda Sete Barras","coords":{"degMinSec":"12°33'42''S 051°41'41''W","decimal":{"lat":-12.561666666666667,"lon":-51.69472222222222}},"type":"AD","city":"Ribeirão Cascalheira","uf":"MT","elev":363},
{"icao":"SWXG","name":"Fazenda Cachoeirinha","coords":{"degMinSec":"17°13'57''S 051°39'01''W","decimal":{"lat":-17.232499999999998,"lon":-51.650277777777774}},"type":"AD","city":"Caiapônia","uf":"GO","elev":993},
{"icao":"SD8B","name":"Fazenda São Domingos","coords":{"degMinSec":"17°38'06''S 056°21'21''W","decimal":{"lat":-17.634999999999998,"lon":-56.35583333333334}},"type":"AD","city":"Corumbá","uf":"MS","elev":122},
{"icao":"SD8N","name":"Fazenda Nova Era Agropecuária","coords":{"degMinSec":"15°21'39''S 060°06'26''W","decimal":{"lat":-15.360833333333334,"lon":-60.10722222222223}},"type":"AD","city":"Vila Bela da Santíssima Trindade","uf":"MT","elev":241},
{"icao":"SD8P","name":"GAPS 1","coords":{"degMinSec":"09°24'48''S 049°51'01''W","decimal":{"lat":-9.413333333333334,"lon":-49.85027777777778}},"type":"AD","city":"Caseara","uf":"TO","elev":198},
{"icao":"SD8R","name":"São José da Boa Vista I","coords":{"degMinSec":"12°21'56''S 058°20'05''W","decimal":{"lat":-12.365555555555556,"lon":-58.334722222222226}},"type":"AD","city":"Brasnorte","uf":"MT","elev":335},
{"icao":"SD8S","name":"Fazenda Alegria - P","coords":{"degMinSec":"04°19'10''S 045°22'04''W","decimal":{"lat":-4.319444444444445,"lon":-45.367777777777775}},"type":"AD","city":"Vitorino Freire","uf":"MA","elev":51},
{"icao":"SD8U","name":"UTIDA","coords":{"degMinSec":"13°20'16''S 058°00'22''W","decimal":{"lat":-13.337777777777779,"lon":-58.00611111111111}},"type":"AD","city":"Campo Novo do Parecis","uf":"MT","elev":504},
{"icao":"SDAL","name":"Condomínio Guaporé II","coords":{"degMinSec":"21°13'36''S 047°46'56''W","decimal":{"lat":-21.226666666666667,"lon":-47.782222222222224}},"type":"HP","city":"Ribeirão Preto","uf":"SP","elev":630},
{"icao":"SDJR","name":"JN Resort","coords":{"degMinSec":"19°25'49''S 044°18'16''W","decimal":{"lat":-19.43027777777778,"lon":-44.30444444444444}},"type":"AD","city":"Sete Lagoas","uf":"MG","elev":800},
{"icao":"SDOU","name":"Jornalista Benedito Pimentel","coords":{"degMinSec":"22°58'25''S 049°54'41''W","decimal":{"lat":-22.973611111111108,"lon":-49.91138888888889}},"type":"AD","city":"Ourinhos","uf":"SP","elev":462},
{"icao":"SISY","name":"Piraquara","coords":{"degMinSec":"25°27'05''S 049°08'38''W","decimal":{"lat":-25.45138888888889,"lon":-49.14388888888889}},"type":"AD","city":"Piraquara","uf":"PR","elev":881},
{"icao":"SJJP","name":"Posto O Fazendeiro","coords":{"degMinSec":"24°15'24''S 047°22'44''W","decimal":{"lat":-24.256666666666668,"lon":-47.37888888888889}},"type":"HP","city":"Miracatu","uf":"SP","elev":61},
{"icao":"SJTU","name":"Fazenda Tucano","coords":{"degMinSec":"13°35'06''S 057°33'52''W","decimal":{"lat":-13.585,"lon":-57.56444444444444}},"type":"AD","city":"Campo Novo do Parecis","uf":"MT","elev":525},
{"icao":"SSNH","name":"Novo Hamburgo","coords":{"degMinSec":"29°41'57''S 051°04'55''W","decimal":{"lat":-29.699166666666667,"lon":-51.081944444444446}},"type":"AD","city":"Novo Hamburgo","uf":"RS","elev":15},
{"icao":"SBGO","name":"SANTA GENOVEVA","coords":{"degMinSec":"16°37'57''S 049°13'16''W","decimal":{"lat":-16.6325,"lon":-49.221111111111114}},"type":"AD","city":"Goiânia","uf":"GO","elev":747.79},
{"icao":"SBJV","name":"LAURO CARNEIRO DE LOYOLA","coords":{"degMinSec":"26°13'23''S 048°47'52''W","decimal":{"lat":-26.223055555555554,"lon":-48.797777777777775}},"type":"AD","city":"Joinville","uf":"SC","elev":4.48},
{"icao":"SBSJ","name":"Professor Urbano Ernesto Stumpf","coords":{"degMinSec":"23°13'44''S 045°52'16''W","decimal":{"lat":-23.228888888888886,"lon":-45.87111111111111}},"type":"AD","city":"São José dos Campos","uf":"SP","elev":647},
{"icao":"SBYS","name":"CAMPO FONTENELLE","coords":{"degMinSec":"21°59'04''S 047°20'39''W","decimal":{"lat":-21.984444444444446,"lon":-47.344166666666666}},"type":"AD","city":"Pirassununga","uf":"SP","elev":602.39},
{"icao":"SN42","name":"Fazenda Santa Maria","coords":{"degMinSec":"23°42'05''S 054°47'24''W","decimal":{"lat":-23.70138888888889,"lon":-54.79}},"type":"AD","city":"Tacuru","uf":"MS","elev":357},
{"icao":"SN43","name":"Evandro Moreira","coords":{"degMinSec":"03°05'29''S 047°25'12''W","decimal":{"lat":-3.091388888888889,"lon":-47.419999999999995}},"type":"AD","city":"Paragominas","uf":"PA","elev":92},
{"icao":"SN44","name":"Fazenda Córrego Fundo","coords":{"degMinSec":"21°41'59''S 053°26'22''W","decimal":{"lat":-21.699722222222224,"lon":-53.43944444444444}},"type":"AD","city":"Nova Andradina","uf":"MS","elev":395},
{"icao":"SN46","name":"Nelson Braido","coords":{"degMinSec":"14°13'04''S 060°00'05''W","decimal":{"lat":-14.217777777777778,"lon":-60.00138888888889}},"type":"AD","city":"Nova Lacerda","uf":"MT","elev":232},
{"icao":"SN47","name":"FASAM","coords":{"degMinSec":"16°43'18''S 049°14'11''W","decimal":{"lat":-16.721666666666664,"lon":-49.23638888888889}},"type":"HP","city":"Goiânia","uf":"GO","elev":828},
{"icao":"SSRE","name":"Realeza","coords":{"degMinSec":"25°48'04''S 053°30'47''W","decimal":{"lat":-25.801111111111112,"lon":-53.51305555555555}},"type":"AD","city":"Realeza","uf":"PR","elev":501},
{"icao":"SDOJ","name":"Ecobalsa / Flyone","coords":{"degMinSec":"23°00'40''S 043°22'40''W","decimal":{"lat":-23.011111111111113,"lon":-43.37777777777778}},"type":"HP","city":"Rio de Janeiro","uf":"RJ","elev":1},
{"icao":"SIAS","name":"Fazenda Cachoeira Alta","coords":{"degMinSec":"12°56'25''S 054°16'06''W","decimal":{"lat":-12.940277777777778,"lon":-54.26833333333333}},"type":"AD","city":"Paranatinga","uf":"MT","elev":350},
{"icao":"SIEH","name":"Fazenda Vô Chico","coords":{"degMinSec":"20°18'44''S 050°36'45''W","decimal":{"lat":-20.31222222222222,"lon":-50.612500000000004}},"type":"AD","city":"Jales","uf":"SP","elev":469},
{"icao":"SIKS","name":"Fazenda Vale do Juruena","coords":{"degMinSec":"09°24'09''S 058°13'44''W","decimal":{"lat":-9.4025,"lon":-58.22888888888889}},"type":"AD","city":"Nova Bandeirantes","uf":"MT","elev":211},
{"icao":"SIMP","name":"Fazenda Triunfo","coords":{"degMinSec":"17°38'18''S 054°04'43''W","decimal":{"lat":-17.638333333333332,"lon":-54.078611111111115}},"type":"AD","city":"Sonora","uf":"MS","elev":586},
{"icao":"SJJL","name":"Fazenda Campo Aberto","coords":{"degMinSec":"11°47'18''S 045°57'53''W","decimal":{"lat":-11.788333333333334,"lon":-45.96472222222223}},"type":"AD","city":"Barreiras","uf":"BA","elev":737},
{"icao":"SNGU","name":"Grupo Petrópolis Uberaba","coords":{"degMinSec":"19°50'16''S 047°53'08''W","decimal":{"lat":-19.837777777777777,"lon":-47.885555555555555}},"type":"HP","city":"Uberaba","uf":"MG","elev":712},
{"icao":"SNTU","name":"Fazenda Tupã","coords":{"degMinSec":"13°20'49''S 053°39'02''W","decimal":{"lat":-13.346944444444444,"lon":-53.650555555555556}},"type":"AD","city":"Gaúcha do Norte","uf":"MT","elev":404},
{"icao":"SSFS","name":"Fazenda Sapezal","coords":{"degMinSec":"13°19'57''S 058°46'56''W","decimal":{"lat":-13.3325,"lon":-58.782222222222224}},"type":"AD","city":"Sapezal","uf":"MT","elev":542},
{"icao":"SWNF","name":"Franciscus","coords":{"degMinSec":"09°29'59''S 049°37'45''W","decimal":{"lat":-9.499722222222221,"lon":-49.62916666666667}},"type":"AD","city":"Divinópolis do Tocantins","uf":"TO","elev":201},
{"icao":"SD7O","name":"Giongo Participações - Fazenda Camila","coords":{"degMinSec":"13°44'06''S 053°37'18''W","decimal":{"lat":-13.735,"lon":-53.62166666666667}},"type":"AD","city":"Gaúcha do Norte","uf":"MT","elev":525},
{"icao":"SDCV","name":"Citibank","coords":{"degMinSec":"23°33'54''S 046°39'13''W","decimal":{"lat":-23.565,"lon":-46.65361111111111}},"type":"HP","city":"São Paulo","uf":"SP","elev":916},
{"icao":"SDFD","name":"Coronel Aviador Carlos Orleans Guimarães","coords":{"degMinSec":"20°16'36''S 050°12'50''W","decimal":{"lat":-20.276666666666667,"lon":-50.21388888888889}},"type":"AD","city":"Fernandópolis","uf":"SP","elev":499},
{"icao":"SDIV","name":"Ituverava","coords":{"degMinSec":"20°22'31''S 047°46'07''W","decimal":{"lat":-20.37527777777778,"lon":-47.76861111111111}},"type":"AD","city":"Ituverava","uf":"SP","elev":623},
{"icao":"SDLI","name":"Fazenda Dois Irmãos","coords":{"degMinSec":"13°36'09''S 057°52'30''W","decimal":{"lat":-13.6025,"lon":-57.875}},"type":"AD","city":"Campo Novo do Parecis","uf":"MT","elev":547},
{"icao":"SDQ9","name":"Fazenda Patriota","coords":{"degMinSec":"11°29'27''S 056°10'18''W","decimal":{"lat":-11.490833333333333,"lon":-56.17166666666667}},"type":"AD","city":"Tabaporã","uf":"MT","elev":366},
{"icao":"SDR2","name":"Fazenda Monte Alegre","coords":{"degMinSec":"06°20'30''S 049°34'47''W","decimal":{"lat":-6.341666666666667,"lon":-49.57972222222222}},"type":"AD","city":"Curionópolis","uf":"PA","elev":193},
{"icao":"SDR4","name":"Hugo 2","coords":{"degMinSec":"16°38'54''S 049°20'12''W","decimal":{"lat":-16.648333333333333,"lon":-49.336666666666666}},"type":"HP","city":"Goiânia","uf":"GO","elev":785},
{"icao":"SDR6","name":"Aldeia Urunai","coords":{"degMinSec":"01°31'15''N 056°04'58''W","decimal":{"lat":1.5208333333333333,"lon":-56.08277777777778}},"type":"AD","city":"Oriximiná","uf":"PA","elev":311},
{"icao":"SDXD","name":"Fazenda Guará","coords":{"degMinSec":"14°38'23''S 045°48'17''W","decimal":{"lat":-14.639722222222222,"lon":-45.80472222222222}},"type":"AD","city":"Jaborandi","uf":"BA","elev":855},
{"icao":"SJ6S","name":"Sítio Pouso da Águia","coords":{"degMinSec":"10°26'50''S 049°09'51''W","decimal":{"lat":-10.447222222222223,"lon":-49.16416666666667}},"type":"AD","city":"Pium","uf":"TO","elev":274},
{"icao":"SJ6T","name":"Le Monde","coords":{"degMinSec":"21°12'34''S 047°47'54''W","decimal":{"lat":-21.209444444444443,"lon":-47.79833333333333}},"type":"HP","city":"Ribeirão Preto","uf":"SP","elev":690},
{"icao":"SJ6U","name":"São José","coords":{"degMinSec":"15°14'01''S 054°45'08''W","decimal":{"lat":-15.23361111111111,"lon":-54.75222222222222}},"type":"AD","city":"Campo Verde","uf":"MT","elev":708},
{"icao":"SJ6V","name":"Fazenda Morada Nova","coords":{"degMinSec":"18°52'16''S 051°35'23''W","decimal":{"lat":-18.871111111111112,"lon":-51.58972222222222}},"type":"AD","city":"Itajá","uf":"GO","elev":528},
{"icao":"SJ6W","name":"Indaiá","coords":{"degMinSec":"23°49'17''S 046°02'33''W","decimal":{"lat":-23.82138888888889,"lon":-46.0425}},"type":"HP","city":"Bertioga","uf":"SP","elev":14},
{"icao":"SJ6X","name":"Faz. Sto. Antônio do Itiquira","coords":{"degMinSec":"17°05'54''S 054°58'53''W","decimal":{"lat":-17.098333333333333,"lon":-54.981388888888894}},"type":"AD","city":"Santo Antônio do Leverger","uf":"MT","elev":169},
{"icao":"SJFD","name":"Méier Medical Center","coords":{"degMinSec":"22°53'57''S 043°16'53''W","decimal":{"lat":-22.899166666666666,"lon":-43.28138888888889}},"type":"HP","city":"Rio de Janeiro","uf":"RJ","elev":54},
{"icao":"SNJL","name":"J Lem","coords":{"degMinSec":"12°07'30''S 045°46'20''W","decimal":{"lat":-12.125,"lon":-45.77222222222222}},"type":"AD","city":"Luís Eduardo Magalhães","uf":"BA","elev":734},
{"icao":"SSMA","name":"Spasse","coords":{"degMinSec":"21°12'04''S 047°47'45''W","decimal":{"lat":-21.20111111111111,"lon":-47.795833333333334}},"type":"HP","city":"Ribeirão Preto","uf":"SP","elev":604},
{"icao":"SWNU","name":"Fazenda Maringá","coords":{"degMinSec":"03°09'43''S 048°06'25''W","decimal":{"lat":-3.1619444444444444,"lon":-48.106944444444444}},"type":"AD","city":"Ipixuna do Pará","uf":"PA","elev":43},
{"icao":"SDSZ","name":"Banco Safra","coords":{"degMinSec":"23°33'29''S 046°39'35''W","decimal":{"lat":-23.558055555555555,"lon":-46.65972222222222}},"type":"HP","city":"São Paulo","uf":"SP","elev":908},
{"icao":"SJHV","name":"Granja 4 Irmãos - Taim","coords":{"degMinSec":"32°15'50''S 052°34'02''W","decimal":{"lat":-32.263888888888886,"lon":-52.56722222222223}},"type":"AD","city":"Rio Grande","uf":"RS","elev":17},
{"icao":"SNLM","name":"Pousada Pirá-Açu","coords":{"degMinSec":"07°46'14''S 060°22'40''W","decimal":{"lat":-7.770555555555555,"lon":-60.37777777777778}},"type":"AD","city":"Apuí","uf":"AM","elev":96},
{"icao":"SSXI","name":"Komprão Itapema","coords":{"degMinSec":"27°07'46''S 048°36'47''W","decimal":{"lat":-27.129444444444445,"lon":-48.613055555555555}},"type":"HP","city":"Itapema","uf":"SC","elev":5},
{"icao":"SWIA","name":"Antônio Costa da Silva","coords":{"degMinSec":"03°28'56''S 066°03'27''W","decimal":{"lat":-3.4822222222222226,"lon":-66.05749999999999}},"type":"AD","city":"Juruá","uf":"AM","elev":68},
{"icao":"SWXT","name":"Fazenda Parnaguá","coords":{"degMinSec":"09°06'17''S 045°37'04''W","decimal":{"lat":-9.104722222222222,"lon":-45.617777777777775}},"type":"AD","city":"Santa Filomena","uf":"PI","elev":579},
{"icao":"SBOO","name":"Fazenda Ceita Corê","coords":{"degMinSec":"20°50'19''S 056°35'19''W","decimal":{"lat":-20.83861111111111,"lon":-56.58861111111111}},"type":"AD","city":"Bonito","uf":"MS","elev":474},
{"icao":"SBOW","name":"Fazenda Agropecuária Vale do Ouro","coords":{"degMinSec":"04°11'12''S 056°03'29''W","decimal":{"lat":-4.1866666666666665,"lon":-56.058055555555555}},"type":"AD","city":"Itaituba","uf":"PA","elev":66},
{"icao":"SBTK","name":"TARAUACA","coords":{"degMinSec":"08°09'17''S 070°46'58''W","decimal":{"lat":-8.154722222222222,"lon":-70.78277777777778}},"type":"AD","city":"Tarauacá","uf":"AC","elev":197},
{"icao":"SDPD","name":"Pindamonhangaba","coords":{"degMinSec":"22°56'38''S 045°25'55''W","decimal":{"lat":-22.94388888888889,"lon":-45.43194444444444}},"type":"AD","city":"Pindamonhangaba","uf":"SP","elev":574},
{"icao":"SNLL","name":"Condomínio Liberty","coords":{"degMinSec":"16°26'57''S 049°00'44''W","decimal":{"lat":-16.449166666666667,"lon":-49.01222222222222}},"type":"AD","city":"Goianápolis","uf":"GO","elev":1022},
{"icao":"SWYE","name":"Fazenda São Lourenço","coords":{"degMinSec":"29°33'21''S 055°47'04''W","decimal":{"lat":-29.555833333333332,"lon":-55.78444444444444}},"type":"AD","city":"Alegrete","uf":"RS","elev":137},
{"icao":"SD9J","name":"FRIGORÍFICO NUTRIBRÁS","coords":{"degMinSec":"12°28'57''S 055°42'32''W","decimal":{"lat":-12.4825,"lon":-55.70888888888889}},"type":"HP","city":"Sorriso","uf":"MT","elev":382},
{"icao":"SDVI","name":"Comandante Gastão","coords":{"degMinSec":"14°38'44''S 057°30'10''W","decimal":{"lat":-14.645555555555555,"lon":-57.50277777777778}},"type":"AD","city":"Tangará da Serra","uf":"MT","elev":424},
{"icao":"SJFO","name":"Fazenda Sorriso","coords":{"degMinSec":"16°09'53''S 050°08'19''W","decimal":{"lat":-16.16472222222222,"lon":-50.13861111111111}},"type":"AD","city":"Mossâmedes","uf":"GO","elev":704},
{"icao":"SNDD","name":"Condomínio Aeronáutico Santos Dumont","coords":{"degMinSec":"23°04'05''S 047°19'26''W","decimal":{"lat":-23.068055555555556,"lon":-47.323888888888895}},"type":"AD","city":"Elias Fausto","uf":"SP","elev":654},
{"icao":"SWCK","name":"West Corp","coords":{"degMinSec":"23°30'06''S 046°51'04''W","decimal":{"lat":-23.501666666666665,"lon":-46.85111111111111}},"type":"HP","city":"Barueri","uf":"SP","elev":837},
{"icao":"SWCN","name":"Instituto de Ciências Náuticas","coords":{"degMinSec":"22°56'04''S 042°56'55''W","decimal":{"lat":-22.934444444444445,"lon":-42.948611111111106}},"type":"HP","city":"Maricá","uf":"RJ","elev":7},
{"icao":"SNAS","name":"Três Marias","coords":{"degMinSec":"18°13'30''S 045°11'26''W","decimal":{"lat":-18.224999999999998,"lon":-45.190555555555555}},"type":"AD","city":"Três Marias","uf":"MG","elev":786},
{"icao":"SNHP","name":"Fazenda São Judas Tadeu","coords":{"degMinSec":"21°33'40''S 052°58'30''W","decimal":{"lat":-21.561111111111114,"lon":-52.975}},"type":"AD","city":"Santa Rita do Pardo","uf":"MS","elev":337},
{"icao":"SNJE","name":"Fazenda Fresadora","coords":{"degMinSec":"05°02'43''S 044°02'49''W","decimal":{"lat":-5.045277777777778,"lon":-44.04694444444444}},"type":"AD","city":"Gonçalves Dias","uf":"MA","elev":152},
{"icao":"SSTV","name":"Fazenda Diamantino","coords":{"degMinSec":"12°07'11''S 055°24'07''W","decimal":{"lat":-12.119722222222222,"lon":-55.401944444444446}},"type":"AD","city":"Sinop","uf":"MT","elev":374},
{"icao":"SSUF","name":"Rede D'Or São Luiz Anália Franco","coords":{"degMinSec":"23°32'56''S 046°33'30''W","decimal":{"lat":-23.54888888888889,"lon":-46.55833333333333}},"type":"HP","city":"São Paulo","uf":"SP","elev":821},
{"icao":"SWEP","name":"Estância Punta Del Este","coords":{"degMinSec":"22°48'16''S 050°58'58''W","decimal":{"lat":-22.804444444444446,"lon":-50.98277777777778}},"type":"AD","city":"Sertaneja","uf":"PR","elev":350},
{"icao":"SWFI","name":"Fazenda Santa Paula","coords":{"degMinSec":"15°38'35''S 057°32'53''W","decimal":{"lat":-15.643055555555556,"lon":-57.54805555555556}},"type":"AD","city":"Cáceres","uf":"MT","elev":156},
{"icao":"SWGD","name":"Fazenda Estrela","coords":{"degMinSec":"08°28'17''S 045°19'44''W","decimal":{"lat":-8.471388888888889,"lon":-45.32888888888889}},"type":"AD","city":"Baixa Grande do Ribeiro","uf":"PI","elev":529},
{"icao":"SWJH","name":"Sementes Beé","coords":{"degMinSec":"28°03'09''S 051°58'06''W","decimal":{"lat":-28.052500000000002,"lon":-51.968333333333334}},"type":"AD","city":"Tapejara","uf":"RS","elev":670},
{"icao":"SWPG","name":"PORTO DOS GAÚCHOS","coords":{"degMinSec":"11°31'01''S 057°20'02''W","decimal":{"lat":-11.516944444444444,"lon":-57.33388888888889}},"type":"AD","city":"Porto dos Gaúchos","uf":"MT","elev":400},
{"icao":"SSVZ","name":"Autovias","coords":{"degMinSec":"21°09'48''S 047°45'18''W","decimal":{"lat":-21.16333333333333,"lon":-47.755}},"type":"HP","city":"Ribeirão Preto","uf":"SP","elev":550},
{"icao":"SD66","name":"Cravari","coords":{"degMinSec":"12°30'20''S 057°52'35''W","decimal":{"lat":-12.505555555555556,"lon":-57.87638888888889}},"type":"AD","city":"Brasnorte","uf":"MT","elev":309},
{"icao":"SIXH","name":"Hospital Unimed Joinville","coords":{"degMinSec":"26°17'20''S 048°50'44''W","decimal":{"lat":-26.28888888888889,"lon":-48.845555555555556}},"type":"HP","city":"Joinville","uf":"SC","elev":6},
{"icao":"SJ4Y","name":"Morrinhos","coords":{"degMinSec":"17°45'42''S 049°07'18''W","decimal":{"lat":-17.761666666666667,"lon":-49.12166666666667}},"type":"AD","city":"Morrinhos","uf":"GO","elev":803},
{"icao":"SJRG","name":"Regional de Rio Grande","coords":{"degMinSec":"32°05'01''S 052°10'04''W","decimal":{"lat":-32.08361111111111,"lon":-52.16777777777777}},"type":"AD","city":"Rio Grande","uf":"RS","elev":6},
{"icao":"SNID","name":"Instituto Dr. Arnaldo","coords":{"degMinSec":"23°33'22''S 046°40'06''W","decimal":{"lat":-23.55611111111111,"lon":-46.66833333333333}},"type":"HP","city":"São Paulo","uf":"SP","elev":926},
{"icao":"SNRU","name":"Caruaru","coords":{"degMinSec":"08°17'04''S 036°00'39''W","decimal":{"lat":-8.284444444444444,"lon":-36.01083333333333}},"type":"AD","city":"Caruaru","uf":"PE","elev":576},
{"icao":"SSER","name":"Erechim","coords":{"degMinSec":"27°39'48''S 052°16'19''W","decimal":{"lat":-27.66333333333333,"lon":-52.27194444444444}},"type":"AD","city":"Erechim","uf":"RS","elev":761},
{"icao":"SIHX","name":"Fazenda Pau D'Alho","coords":{"degMinSec":"09°24'22''S 058°11'28''W","decimal":{"lat":-9.40611111111111,"lon":-58.191111111111105}},"type":"AD","city":"Nova Bandeirantes","uf":"MT","elev":240},
{"icao":"SNMA","name":"Monte Alegre","coords":{"degMinSec":"01°59'48''S 054°04'17''W","decimal":{"lat":-1.9966666666666668,"lon":-54.07138888888889}},"type":"AD","city":"Monte Alegre","uf":"PA","elev":99},
{"icao":"SNRF","name":"Ecofabril","coords":{"degMinSec":"23°10'32''S 046°56'18''W","decimal":{"lat":-23.175555555555558,"lon":-46.93833333333333}},"type":"HP","city":"Jundiaí","uf":"SP","elev":724},
{"icao":"SSVR","name":"Adão Veríssimo","coords":{"degMinSec":"04°22'35''S 047°26'17''W","decimal":{"lat":-4.376388888888888,"lon":-47.43805555555555}},"type":"AD","city":"Itinga do Maranhão","uf":"MA","elev":149},
{"icao":"SBBV","name":"Atlas Brasil Cantanhede","coords":{"degMinSec":"02°50'29''N 060°41'32''W","decimal":{"lat":2.841388888888889,"lon":-60.69222222222222}},"type":"AD","city":"Boa Vista","uf":"RR","elev":84},
{"icao":"SBHT","name":"ALTAMIRA","coords":{"degMinSec":"03°15'03''S 052°15'08''W","decimal":{"lat":-3.2508333333333335,"lon":-52.25222222222222}},"type":"AD","city":"Altamira","uf":"PA","elev":112.16},
{"icao":"SBPV","name":"Governador Jorge Teixeira de Oliveira","coords":{"degMinSec":"08°42'49''S 063°54'10''W","decimal":{"lat":-8.71361111111111,"lon":-63.90277777777778}},"type":"AD","city":"Porto Velho","uf":"RO","elev":90},
{"icao":"SJ8N","name":"Condomínio Aeronáutico Aeroagro","coords":{"degMinSec":"12°35'37''S 055°41'49''W","decimal":{"lat":-12.593611111111112,"lon":-55.69694444444444}},"type":"AD","city":"Sorriso","uf":"MT","elev":373},
{"icao":"SN6K","name":"Fazenda Guarani","coords":{"degMinSec":"12°53'54''S 046°11'25''W","decimal":{"lat":-12.898333333333333,"lon":-46.19027777777777}},"type":"AD","city":"São Desidério","uf":"BA","elev":927},
{"icao":"SNVR","name":"Aeroclube da Bahia","coords":{"degMinSec":"13°01'17''S 038°40'52''W","decimal":{"lat":-13.02138888888889,"lon":-38.68111111111111}},"type":"AD","city":"Vera Cruz","uf":"BA","elev":4},
{"icao":"SBJI","name":"JI-PARANA","coords":{"degMinSec":"10°52'14''S 061°50'48''W","decimal":{"lat":-10.870555555555557,"lon":-61.84666666666667}},"type":"AD","city":"Ji-Paraná","uf":"RO","elev":182},
{"icao":"SDO6","name":"Fazenda Alvorada","coords":{"degMinSec":"11°58'39''S 046°01'35''W","decimal":{"lat":-11.977500000000001,"lon":-46.02638888888889}},"type":"AD","city":"Luís Eduardo Magalhães","uf":"BA","elev":814},
{"icao":"SDW2","name":"Fazenda Santa Isabel","coords":{"degMinSec":"19°55'51''S 055°40'18''W","decimal":{"lat":-19.930833333333336,"lon":-55.67166666666667}},"type":"AD","city":"Aquidauana","uf":"MS","elev":137},
{"icao":"SJBY","name":"Jõao Silva","coords":{"degMinSec":"03°39'16''S 045°20'43''W","decimal":{"lat":-3.654444444444444,"lon":-45.34527777777778}},"type":"AD","city":"Santa Inês","uf":"MA","elev":21},
{"icao":"SNKB","name":"Aeroclube de Campina Grande","coords":{"degMinSec":"07°10'42''S 035°59'25''W","decimal":{"lat":-7.178333333333334,"lon":-35.99027777777778}},"type":"AD","city":"Campina Grande","uf":"PB","elev":693},
{"icao":"SDNN","name":"Birmann 21","coords":{"degMinSec":"23°33'55''S 046°42'08''W","decimal":{"lat":-23.56527777777778,"lon":-46.702222222222225}},"type":"HP","city":"São Paulo","uf":"SP","elev":840},
{"icao":"SDXQ","name":"Internacional Plaza II","coords":{"degMinSec":"23°35'28''S 046°40'56''W","decimal":{"lat":-23.59111111111111,"lon":-46.68222222222222}},"type":"HP","city":"São Paulo","uf":"SP","elev":828},
{"icao":"SJHD","name":"Josidith","coords":{"degMinSec":"06°49'55''S 047°49'04''W","decimal":{"lat":-6.831944444444444,"lon":-47.81777777777778}},"type":"AD","city":"Darcinópolis","uf":"TO","elev":399},